     2.11           OBSERVATION DATA    G (GPS)             RINEX VERSION / TYPE
teqc  2008Feb15                         20090701 00:35:01UTCPGM / RUN BY / DATE
Linux 2.4.20-8|Pentium IV|gcc -static|Linux|486/DX+         COMMENT
     2.10           Observation data    G (GPS)             COMMENT
sbf2rin                                 (01-JUL-09 00:35)   COMMENT
LLI: only bit 0 (loss of lock bit) supported                COMMENT
ROAP                                                        MARKER NAME
13402M006                                                   MARKER NUMBER
HEP                 ROA                                     OBSERVER / AGENCY
1225                SEPT POLARX2        2.7.0               REC # / TYPE / VERS
3392                SEN67157596+CR  NONE                    ANT # / TYPE
  5105509.7546  -555200.6252  3769790.2558                  APPROX POSITION XYZ
        1.1113       -0.3808       -0.0234                  ANTENNA: DELTA H/E/N
     1     1                                                WAVELENGTH FACT L1/2
     5    C1    L1    L2    P2    P1                        # / TYPES OF OBSERV
    30.0000                                                 INTERVAL
  2009     6    30     0     0    0.0000000     GPS         TIME OF FIRST OBS
                                                            COMMENT
                                                            END OF HEADER
 09  6 30  0  0  0.0000000  0 10G22G 7G 3G 6G11G32G 8G16G18G19
  21588975.128 9 113450866.879 9  88403263.690 9  21588969.447 9  21588974.094 9
  24181922.872 8 127076873.653 8  99020940.075 6  24181919.278 6  24181922.343 6
  20098990.272 9 105620965.615 9  82302051.293 9  20098987.221 9  20098989.213 9
  20726622.646 9 108919212.942 9  84872125.502 9  20726619.880 9  20726621.916 9
  23491958.892 8 123451075.892 8  96195635.528 6  23491955.509 6  23491959.001 6
  24354785.371 7 127985265.800 7
  24977573.923 7 131258044.895 7 102278985.117 5  24977573.259 5  24977573.024 5
  22419962.756 9 117817731.702 9  91806027.109 8  22419958.778 8  22419961.663 8
  23677440.365 8 124425842.168 8  96955206.485 7  23677436.609 7  23677439.389 7
  20989383.061 9 110300000.393 9  85948050.941 9  20989377.529 9  20989381.464 9
 09  6 30  0  0 30.0000000  0 10G22G 7G 3G 6G11G32G 8G16G18G19
  21593308.277 9 113473639.875 9  88421008.885 9  21593302.846 9  21593307.712 9
  24188497.787 7 127111429.623 7  99047866.800 6  24188494.608 6  24188498.077 6
  20099958.297 9 105626052.165 9  82306014.834 9  20099955.147 9  20099957.295 9
  20730215.031 9 108938091.152 9  84886835.795 9  20730212.015 9  20730214.318 9
  23475999.754 8 123367208.148 8  96130284.034 6  23475996.550 6  23475999.297 6
  24333411.537 7 127872941.780 7  99641245.52915  24333408.038 5  24333410.465 5
  24972176.096 7 131229680.576 7 102256883.032 4  24972175.347 4  24972175.508 4
  22437952.040 9 117912268.413 9  91879692.074 8  22437948.536 8  22437951.305 8
  23690609.622 8 124495048.916 8  97009133.789 7  23690606.163 7  23690608.798 7
  20982297.156 9 110262763.329 9  85919035.038 9  20982291.422 9  20982295.671 9
 09  6 30  0  1  0.0000000  0 10G22G 7G 3G 6G11G32G 8G16G18G19
  21597745.829 9 113496958.783 9  88439179.468 9  21597740.437 9  21597745.319 9
  24195156.027 7 127146416.573 7  99075129.364 6  24195152.466 6  24195155.655 6
  20100993.074 9 105631490.067 9  82310252.156 9  20100990.204 9  20100991.885 9
  20733861.378 9 108957252.283 9  84901766.535 9  20733858.115 9  20733860.451 9
  23460071.716 8 123283505.647 8  96065061.334 6  23460068.794 6  23460070.675 6
  24312041.921 7 127760641.222 7  99553738.636 5  24312039.077 5  24312038.831 5
  24966882.250 7 131201859.214 7 102235204.046 4  24966881.193 4  24966881.023 4
  22455995.159 9 118007082.774 9  91953573.387 8  22455991.510 8  22455994.112 8
  23703849.427 8 124564622.542 8  97063347.015 7  23703845.485 7  23703848.672 7
  20975248.617 9 110225722.305 9  85890171.889 9  20975243.015 9  20975246.989 9
 09  6 30  0  1 30.0000000  0 10G22G 7G 3G 6G11G32G 8G16G18G19
  21602286.947 9 113520822.932 9  88457774.916 9  21602281.883 9  21602286.267 9
  24201895.380 7 127181832.737 7  99102726.358 6  24201892.446 6  24201895.187 6
  20102094.900 9 105637279.821 9  82314763.650 9  20102091.879 9  20102093.818 9
  20737561.479 9 108976696.875 9  84916918.158 9  20737558.513 9  20737560.488 9
  23444175.122 8 123199969.104 8  95999967.959 7  23444172.349 7  23444174.483 7
  24290676.134 7 127648366.816 7  99466252.115 5  24290673.882 5  24290675.528 5
  24961691.881 7 131174580.983 7 102213948.288 5  24961690.652 5  24961690.250 5
  22474089.843 9 118102172.766 9  92027669.484 8  22474086.439 8  22474088.883 8
  23717158.199 8 124634560.954 8  97117844.492 6  23717154.171 6  23717157.343 6
  20968237.493 9 110188878.272 9  85861462.255 9  20968231.806 9  20968235.804 9
 09  6 30  0  2  0.0000000  0 10G22G 7G 3G 6G11G32G 8G16G18G19
  21606931.714 9 113545231.363 9  88476794.478 9  21606926.437 9  21606930.990 9
  24208716.847 7 127217675.682 7  99130655.921 6  24208713.210 6  24208715.245 6
  20103263.794 9 105643421.994 9  82319549.756 9  20103260.706 9  20103262.729 9
  20741315.878 9 108996425.707 9  84932291.272 9  20741312.711 9  20741314.706 9
  23428310.206 8 123116599.126 8  95935004.373 6  23428307.548 6  23428309.756 6
  24269316.703 7 127536121.159 7  99378787.967 5  24269313.898 5  24269316.534 5
  24956603.754 7 131147846.581 7 102193116.298 5  24956602.055 5  24956603.349 5
  22492236.971 9 118197535.921 9  92101978.425 8  22492233.493 8  22492235.729 8
  23730536.447 8 124704862.116 8  97172624.593 7  23730531.966 7  23730535.260 7
  20961263.943 9 110152232.185 9  85832906.866 9  20961258.270 9  20961262.445 9
 09  6 30  0  2 30.0000000  0 10G22G 7G 3G 6G11G32G 8G16G18G19
  21611679.941 9 113570183.171 9  88496237.451 9  21611674.749 9  21611679.188 9
  24215617.799 7 127253943.376 7  99158916.470 6  24215614.826 6  24215616.804 6
  20104499.692 9 105649917.171 9  82324610.930 9  20104496.573 9  20104498.621 9
  20745124.313 9 109016439.239 9  84947886.233 9  20745121.090 9  20745123.355 9
  23412477.293 8 123033396.030 8  95870170.809 6  23412474.536 6  23412476.774 6
  24247962.954 7 127423906.959 7  99291348.399 5  24247960.265 5  24247961.615 5
  24951620.042 7 131121656.575 7 102172708.564 4  24951617.734 4  24951619.183 4
  22510435.701 8 118293170.123 8  92176498.575 8  22510432.298 8  22510434.450 8
  23743982.567 8 124775523.834 8  97227685.677 7  23743978.741 7  23743981.614 7
  20954328.170 9 110115784.841 9  85804506.339 9  20954322.626 9  20954326.665 9
 09  6 30  0  3  0.0000000  0 10G22G 7G 3G 6G11G32G 8G16G18G19
  21616531.367 9 113595677.660 9  88516103.296 9  21616526.085 9  21616530.550 9
  24222599.638 7 127290633.583 7  99187506.251 6  24222596.955 6  24222598.686 6
  20105802.969 9 105656766.016 9  82329947.690 9  20105799.829 9  20105801.895 9
  20748987.020 9 109036738.043 9  84963703.486 9  20748983.911 9  20748986.234 9
  23396676.260 8 122950360.303 8  95805467.657 7  23396672.868 7  23396675.920 7
  24226615.733 7 127311726.789 7  99203935.320 6  24226613.318 6  24226614.001 6
  24946740.336 7 131096011.270 7 102152725.161 5  24946737.050 5  24946739.215 5
  22528685.175 9 118389072.914 9  92251228.011 8  22528681.760 8  22528684.323 8
  23757497.413 8 124846544.367 8  97283026.375 7  23757493.360 7  23757495.782 7
  20947430.427 9 110079537.087 9  85776261.342 9  20947424.782 9  20947429.112 9
 09  6 30  0  3 30.0000000  0 10G22G 7G 3G 6G11G32G 8G16G18G19
  21621485.637 9 113621713.435 9  88536390.928 9  21621480.445 9  21621485.001 9
  24229661.565 7 127327743.877 7  99216423.357 6  24229659.036 6  24229660.516 6
  20107173.904 9 105663969.676 9  82335560.933 9  20107170.755 9  20107172.755 9
  20752904.198 9 109057322.851 9  84979743.595 9  20752901.100 9  20752903.214 9
  23380906.588 8 122867492.453 8  95740895.318 6  23380903.395 6  23380906.333 6
  24205275.542 7 127199583.533 7  99116551.012 5  24205273.140 5  24205274.002 5
  24941965.075 7 131070911.279 7 102133166.708 5  24941960.496 5  24941962.628 5
  22546985.596 9 118485242.212 9  92326165.125 8  22546981.936 8  22546984.837 8
  23771079.983 8 124917921.572 8  97338644.984 7  23771076.189 7  23771078.765 7
  20940571.051 9 110043489.919 9  85748172.648 9  20940565.525 9  20940569.231 9
 09  6 30  0  4  0.0000000  0 10G22G 7G 3G 6G11G32G 8G16G18G19
  21626543.064 9 113648289.778 9  88557099.774 9  21626537.497 9  21626542.235 9
  24236802.882 7 127365272.025 7  99245666.050 6  24236801.087 6  24236802.419 6
  20108612.183 9 105671528.335 9  82341450.799 9  20108609.130 9  20108611.116 9
  20756875.913 9 109078194.286 9  84996007.050 9  20756872.847 9  20756875.057 9
  23365169.494 8 122784793.088 8  95676454.291 7  23365165.799 7  23365169.263 7
  24183942.293 7 127087479.760 7  99029197.453 6  24183940.514 6  24183941.709 6
  24937291.722 7 131046357.005 7 102114033.520 4  24937288.457 4  24937289.333 4
  22565336.607 9 118581675.627 9  92401308.037 8  22565332.526 8  22565335.512 8
  23784730.233 8 124989652.949 8  97394539.541 6  23784725.911 6  23784729.036 6
  20933749.534 9 110007644.522 9  85720241.182 9  20933744.229 9  20933748.281 9
 09  6 30  0  4 30.0000000  0 10G22G 7G 3G 6G11G32G 8G16G18G19
  21631703.121 9 113675406.008 9  88578229.307 9  21631697.945 9  21631702.432 9
  24244022.743 7 127403215.821 7  99275232.654 6  24244021.379 6  24244023.341 6
  20110118.265 9 105679442.633 9  82347617.788 9  20110115.193 9  20110117.180 9
  20760902.174 9 109099352.821 9  85012494.225 9  20760899.259 9  20760901.278 9
  23349464.652 8 122702262.561 8  95612144.835 7  23349460.842 7  23349464.000 7
  24162618.294 7 126975418.171 7  98941876.747 6  24162615.902 6  24162617.686 6
  24932721.700 7 131022348.838 7 102095325.869 5  24932719.367 5  24932720.930 5
  22583736.896 9 118678370.755 9  92476654.884 8  22583733.184 8  22583736.130 8
  23798447.524 8 125061736.755 8  97450708.753 6  23798442.620 6  23798445.959 6
  20926967.113 9 109972001.678 9  85692467.541 9  20926961.569 9  20926965.549 9
 09  6 30  0  5  0.0000000  0 10G22G 7G 3G 6G11G32G 8G16G18G19
  21636965.929 9 113703061.409 9  88599778.970 9  21636960.669 9  21636965.101 9
  24251322.363 7 127441572.784 7  99305121.172 6  24251319.842 6  24251322.118 6
  20111692.075 9 105687712.910 9  82354062.162 9  20111689.083 9  20111690.890 9
  20764983.272 9 109120799.172 9  85029205.668 9  20764980.191 9  20764982.428 9
  23333792.010 8 122619901.189 8  95547967.191 7  23333788.405 7  23333791.211 7
  24141301.618 7 126863401.550 7  98854591.082 6  24141299.834 6  24141300.983 6
  24928258.080 7 130998887.082 7 102077043.967 5  24928255.702 5  24928256.132 5
  22602187.025 9 118775325.337 9  92552203.892 8  22602182.987 8  22602186.066 8
  23812231.106 8 125134170.640 8  97507150.729 6  23812226.294 6  23812229.642 6
  20920223.347 9 109936562.213 9  85664852.379 9  20920217.661 9  20920221.715 9
 09  6 30  0  5 30.0000000  0 10G22G 7G 3G 6G11G32G 8G16G18G19
  21642330.700 9 113731254.669 9  88621747.748 9  21642325.658 9  21642329.897 9
  24258699.481 7 127480340.822 7  99335330.033 6  24258697.069 6  24258699.966 6
  20113333.734 9 105696339.903 9  82360784.497 9  20113330.522 9  20113332.662 9
  20769119.276 9 109142533.692 9  85046141.656 9  20769116.349 9  20769118.421 9
  23318151.579 8 122537709.478 8  95483921.739 7  23318147.652 7  23318150.878 7
  24119994.566 7 126751432.498 7  98767342.492 6  24119992.883 6  24119993.813 6
  24923897.490 7 130975971.861 7 102059187.962 5  24923895.313 5  24923895.294 5
  22620685.585 8 118872537.197 8  92627953.398 8  22620681.778 8  22620684.755 8
  23826080.464 8 125206952.555 8  97563863.894 6  23826076.224 6  23826080.041 6
  20913517.906 9 109901327.030 9  85637396.403 9  20913512.490 9  20913516.889 9
 09  6 30  0  6  0.0000000  0 10G22G 7G 3G 6G11G32G 8G16G18G19
  21647798.019 9 113759984.608 9  88644134.721 9  21647792.420 9  21647797.067 9
  24266154.876 7 127519517.441 7  99365857.279 6  24266151.941 6  24266154.816 6
  20115043.403 9 105705324.545 9  82367785.519 9  20115040.378 9  20115042.358 9
  20773310.214 9 109164557.251 9  85063302.867 9  20773307.374 9  20773309.247 9
  23302542.970 8 122455688.046 8  95420008.943 7  23302538.968 7  23302542.761 7
  24098696.592 7 126639513.747 7  98680133.108 5  24098695.236 5  24098696.689 5
  24919640.950 7 130953603.386 7 102041757.992 5  24919637.326 5  24919639.466 5
  22639232.680 8 118970003.775 8  92703901.374 8  22639228.984 8  22639231.677 8
  23839996.411 8 125280080.532 8  97620846.741 6  23839992.401 6  23839995.624 6
  20906852.202 9 109866296.904 9  85610100.209 9  20906846.470 9  20906850.515 9
 09  6 30  0  6 30.0000000  0 10G22G 7G 3G 6G11G32G 8G16G18G19
  21653366.863 9 113789250.059 9  88666938.967 9  21653361.569 9  21653366.132 9
  24273687.070 7 127559100.289 7  99396701.039 6  24273683.397 6  24273686.699 6
  20116821.097 9 105714667.267 9  82375065.559 9  20116818.054 9  20116820.207 9
  20777556.495 9 109186870.198 9  85080689.569 9  20777553.249 9  20777555.436 9
  23286966.998 8 122373837.047 8  95356228.981 6  23286962.305 6  23286966.399 6
  24077409.767 6 126527647.955 6  98592964.980 5  24077407.288 5  24077408.537 5
  24915488.666 7 130931782.481 7 102024754.667 5  24915486.089 5  24915488.111 5
  22657827.707 8 119067722.661 8  92780045.934 8  22657824.125 8  22657826.938 8
  23853977.890 8 125353552.293 8  97678097.461 6  23853973.166 6  23853976.629 6
  20900225.156 9 109831473.209 9  85582964.870 9  20900219.764 9  20900223.817 9
 09  6 30  0  7  0.0000000  0 10G22G 7G 3G 6G11G32G 8G16G18G19
  21659037.632 9 113819050.305 9  88690159.944 9  21659032.677 9  21659037.014 9
  24281296.678 7 127599087.169 7  99427859.641 6  24281292.124 6  24281296.208 6
  20118667.092 9 105724368.421 9  82382624.892 9  20118664.090 9  20118666.347 9
  20781857.433 9 109209473.208 9  85098302.300 9  20781854.273 9  20781856.578 9
  23271423.444 8 122292157.011 8  95292582.272 6  23271419.067 6  23271422.951 6
  24056133.327 7 126415837.969 7  98505840.365 5  24056130.103 5  24056133.296 5
  24911440.436 7 130910509.356 7 102008178.204 5  24911437.685 5  24911440.465 5
  22676471.295 8 119165692.084 8  92856385.722 8  22676467.439 8  22676469.960 8
  23868024.431 8 125427365.762 8  97735614.468 6  23868019.304 6  23868022.988 6
  20893638.183 9 109796856.859 9  85555991.094 9  20893632.865 9  20893636.709 9
 09  6 30  0  7 30.0000000  0 10G22G 7G 3G 6G11G32G 8G16G18G19
  21664810.239 9 113849384.489 9  88713796.969 9  21664804.917 9  21664809.443 9
  24288982.530 7 127639475.632 7  99459331.155 6  24288977.362 6  24288982.320 6
  20120581.589 9 105734428.708 9  82390464.063 9  20120578.599 9  20120580.823 9
  20786213.911 9 109232366.920 9  85116141.560 9  20786210.878 9  20786213.017 9
  23255913.005 8 122210648.511 8  95229069.175 7  23255908.459 7  23255912.230 7
  24034866.729 7 126304086.496 7  98418761.324 5  24034864.590 5  24034867.249 5
  24907496.850 7 130889783.901 7 101992028.514 5  24907494.104 5  24907496.523 5
  22695161.219 8 119263909.278 8  92932918.589 8  22695157.808 8  22695160.132 8
  23882135.108 8 125501518.819 8  97793396.047 6  23882130.246 6  23882133.962 6
  20887090.383 9 109762448.436 9  85529179.336 9  20887084.981 9  20887089.049 9
 09  6 30  0  8  0.0000000  0 10G22G 7G 3G 6G11G32G 8G16G18G19
  21670683.898 9 113880251.337 9  88737849.058 9  21670678.657 9  21670683.167 9
  24296743.869 7 127680263.264 7  99491113.731 6  24296739.443 6  24296743.602 6
  20122564.474 9 105744848.566 9  82398583.424 9  20122561.543 9  20122563.718 9
  20790625.855 9 109255551.972 9  85134207.828 9  20790622.840 9  20790625.228 9
  23240435.464 8 122129312.045 8  95165690.110 7  23240430.940 7  23240434.331 7
  24013614.256 7 126192396.247 7  98331729.968 5  24013610.195 5  24013613.205 5
  24903656.912 7 130869606.455 7 101976305.812 5  24903654.528 5  24903656.956 5
  22713898.298 8 119362372.086 8  93009642.845 8  22713894.563 8  22713897.265 8
  23896309.761 8 125576009.181 8  97851440.460 6  23896305.782 6  23896308.650 6
  20880582.525 9 109728249.000 9  85502530.423 9  20880577.013 9  20880581.091 9
 09  6 30  0  8 30.0000000  0 10G22G 7G 3G 6G11G32G 8G16G18G19
  21676658.861 9 113911649.719 9  88762315.334 9  21676653.706 9  21676658.116 9
  24304581.118 7 127721447.771 7  99523205.543 6  24304577.026 6  24304580.990 6
  20124615.879 9 105755628.656 9  82406983.482 9  20124613.016 9  20124614.976 9
  20795093.383 9 109279028.707 9  85152501.372 9  20795090.370 9  20795092.424 9
  23224990.322 8 122048147.763 8  95102445.228 7  23224985.998 7  23224988.596 7
  23992371.832 7 126080769.864 7  98244748.311 6  23992369.274 6  23992372.125 6
  24899921.323 7 130849977.079 7 101961010.247 5  24899919.260 5  24899920.502 5
  22732681.330 9 119461078.063 9  93086556.569 8  22732677.442 8  22732680.476 8
  23910548.646 8 125650834.727 8  97909746.076 6  23910544.883 6  23910547.220 6
  20874114.520 9 109694259.715 9  85476045.268 9  20874108.793 9  20874113.172 9
 09  6 30  0  9  0.0000000  0 10G22G 7G 3G 6G11G32G 8G16G18G19
  21682734.626 9 113943578.468 9  88787194.884 9  21682729.377 9  21682733.628 9
  24312493.014 7 127763026.573 7  99555604.585 6  24312489.285 6  24312493.165 6
  20126735.901 9 105766769.307 9  82415664.497 9  20126733.039 9  20126735.023 9
  20799616.503 9 109302797.718 9  85171022.672 9  20799613.488 9  20799615.627 9
  23209578.300 8 121967156.515 8  95039335.197 7  23209574.216 7  23209576.752 7
  23971143.976 7 125969210.064 7  98157818.622 5  23971140.119 5  23971141.796 5
  24896291.344 7 130830896.188 7 101946142.029 5  24896287.736 5  24896289.934 5
  22751510.337 8 119560024.852 8  93163657.933 8  22751505.942 8  22751509.331 8
  23924850.432 8 125725993.479 8  97968311.353 6  23924846.253 6  23924849.490 6
  20867686.784 9 109660481.203 9  85449724.338 9  20867681.018 9  20867685.226 9
 09  6 30  0  9 30.0000000  0 10G22G 7G 3G 6G11G32G 8G16G18G19
  21688911.217 9 113976036.690 9  88812487.012 9  21688906.040 9  21688910.194 9
  24320479.867 7 127804997.430 7  99588309.134 6  24320476.627 6  24320479.138 6
  20128924.754 9 105778271.570 9  82424627.287 9  20128921.802 9  20128923.741 9
  20804195.402 9 109326859.763 9  85189772.317 9  20804192.535 9  20804194.549 9
  23194199.035 8 121886338.189 8  94976359.874 7  23194195.353 7  23194198.090 7
  23949926.875 7 125857719.594 7  98070942.953 5  23949923.878 5  23949926.455 5
  24892764.294 7 130812363.809 7 101931701.223 5  24892760.879 5  24892763.689 5
  22770384.341 8 119659209.982 8  93240945.023 8  22770380.438 8  22770383.583 8
  23939216.156 8 125801483.050 8  98027134.399 6  23939211.351 6  23939214.779 6
  20861299.254 9 109626914.867 9  85423568.746 9  20861293.632 9  20861297.870 9
 09  6 30  0 10  0.0000000  0 10G22G 7G 3G 6G11G32G 8G16G18G19
  21695188.238 9 114009023.002 9  88838190.638 9  21695183.103 9  21695187.406 9
  24328540.349 7 127847357.687 7  99621317.141 6  24328538.755 6  24328539.975 6
  20131182.408 9 105790135.884 9  82433872.198 9  20131179.524 9  20131181.407 9
  20808830.049 9 109351215.281 9  85208750.631 9  20808827.137 9  20808829.209 9
  23178852.558 8 121805693.620 8  94913519.990 7  23178849.895 7  23178852.273 7
  23928724.915 7 125746301.177 7  97984123.398 6  23928721.682 6  23928724.106 6
  24889341.741 7 130794380.056 7 101917687.905 5  24889339.760 5  24889341.292 5
  22789303.923 8 119758631.329 8  93318416.175 8  22789299.816 8  22789302.602 8
  23953643.882 8 125877301.282 8  98086213.546 6  23953639.263 6  23953642.530 6
  20854952.358 9 109593561.556 9  85397579.143 9  20854946.711 9  20854951.026 9
 09  6 30  0 10 30.0000000  0 10G22G 7G 3G 6G11G32G 8G16G18G19
  21701565.614 9 114042536.171 9  88864304.806 9  21701560.514 9  21701565.018 9
  24336675.089 7 127890105.106 7  99654626.817 6  24336672.324 6  24336675.468 6
  20133509.178 9 105802362.570 9  82443399.481 9  20133506.195 9  20133508.142 9
  20813520.586 9 109375864.792 9  85227958.035 9  20813517.732 9  20813519.835 9
  23163539.235 8 121725223.059 8  94850815.698 7  23163536.720 7  23163539.135 7
  23907537.637 7 125634957.553 7  97897362.175 5  23907534.569 5  23907536.238 5
  24886023.896 7 130776944.691 7 101904101.915 5  24886021.832 5  24886022.998 5
  22808267.668 8 119858286.378 8  93396069.436 8  22808263.404 8  22808266.587 8
  23968133.789 8 125953445.703 8  98145546.856 6  23968129.303 6  23968132.484 6
  20848646.200 9 109560421.857 9  85371755.997 9  20848640.552 9  20848644.812 9
 09  6 30  0 11  0.0000000  0 10G22G 7G 3G 6G11G32G 8G16G18G19
  21708043.226 9 114076575.045 9  88890828.606 9  21708037.346 9  21708042.470 9
  24344883.446 7 127933237.111 7  99688236.148 6  24344879.624 6  24344883.061 6
  20135904.806 9 105814952.443 9  82453209.771 9  20135901.957 9  20135903.988 9
  20818267.345 9 109400808.894 9  85247394.990 9  20818264.423 9  20818266.530 9
  23148260.406 8 121644926.955 8  94788247.332 7  23148256.604 7  23148259.441 7
  23886363.708 7 125523691.426 7  97810661.280 5  23886361.065 5  23886363.196 5
  24882809.947 7 130760058.266 7 101890943.677 5  24882808.324 5  24882810.301 5
  22827275.174 8 119958172.776 8  93473902.953 8  22827271.367 8  22827274.597 8
  23982685.339 8 126029914.591 8  98205133.007 6  23982680.831 6  23982684.030 6
  20842380.646 9 109527497.161 9  85346100.387 9  20842375.064 9  20842379.318 9
 09  6 30  0 11 30.0000000  0 10G22G 7G 3G 6G11G32G 8G16G18G19
  21714620.349 9 114111138.427 9  88917761.124 9  21714614.984 9  21714619.656 9
  24353162.969 7 127976751.353 7  99722143.375 6  24353160.647 6  24353163.688 6
  20138369.796 9 105827905.760 9  82463303.264 9  20138366.566 9  20138368.869 9
  20823070.387 9 109426048.159 9  85267061.946 9  20823067.554 9  20823069.350 9
  23133013.460 8 121564805.667 8  94725815.156 7  23133009.379 7  23133013.342 7
  23865206.141 7 125412505.488 7  97724022.870 5  23865203.288 5  23865205.211 5
  24879701.181 7 130743720.546 7 101878213.047 5  24879699.665 5  24879701.850 5
  22846326.774 8 120058288.151 8  93551914.904 8  22846322.681 8  22846325.697 8
  23997297.724 8 126106705.735 8  98264970.265 6  23997293.755 6  23997297.160 6
  20836156.331 9 109494788.409 9  85320613.050 9  20836151.054 9  20836154.964 9
 09  6 30  0 12  0.0000000  0 10G22G 7G 3G 6G11G32G 8G16G18G19
  21721297.145 9 114146225.091 9  88945101.391 9  21721291.468 9  21721296.378 9
  24361516.767 7 128020645.149 7  99756346.328 6  24361512.860 6  24361516.418 6
  20140903.915 9 105841223.270 9  82473680.544 9  20140901.016 9  20140903.202 9
  20827929.458 9 109451583.039 9  85286959.256 9  20827926.309 9  20827928.452 9
  23117800.417 8 121484859.750 8  94663519.630 7  23117796.441 7  23117800.044 7
  23844063.853 7 125301402.574 7  97637449.138 6  23844061.190 6  23844062.067 6
  24876697.416 7 130727931.675 7 101865910.014 5  24876694.714 5  24876698.180 5
  22865421.301 8 120158629.723 8  93630103.104 8  22865417.425 8  22865420.004 8
  24011971.716 8 126183816.918 8  98325056.942 6  24011967.540 6  24011970.990 6
  20829973.342 9 109462296.361 9  85295294.578 9  20829967.855 9  20829971.933 9
 09  6 30  0 12 30.0000000  0 10G22G 7G 3G 6G11G32G 8G16G18G19
  21728073.094 9 114181833.558 9  88972848.259 9  21728067.863 9  21728072.489 9
  24369940.614 7 128064915.835 7  99790842.936 6  24369937.837 6  24369940.254 6
  20143507.738 9 105854905.482 9  82484342.003 9  20143504.730 9  20143506.723 9
  20832845.036 9 109477414.024 9  85307087.294 9  20832841.943 9  20832844.181 9
  23102620.892 8 121405089.581 8  94601361.058 7  23102616.399 7  23102620.462 7
  23822937.587 7 125190385.354 7  97550942.207 6  23822935.365 6  23822936.434 6
  24873796.489 7 130712691.833 7 101854034.796 5  24873795.221 5  24873797.746 5
  22884558.121 8 120259195.869 8  93708466.300 8  22884554.394 8  22884557.109 8
  24026706.104 8 126261245.758 8  98385391.111 6  24026701.541 6  24026705.478 6
  20823831.839 9 109430022.323 9  85270145.989 9  20823826.260 9  20823830.500 9
 09  6 30  0 13  0.0000000  0 10G22G 7G 3G 6G11G32G 8G16G18G19
  21734948.067 9 114217962.399 9  89001000.610 9  21734943.259 9  21734947.611 9
  24378436.473 7 128109561.111 7  99825631.431 6  24378432.397 6  24378435.934 6
  20146180.760 9 105868952.540 9  82495287.759 9  20146177.995 9  20146179.716 9
  20837816.830 9 109503541.837 9  85327446.624 9  20837813.952 9  20837816.029 9
  23087474.455 8 121325495.410 8  94539339.644 7  23087470.077 7  23087473.564 7
  23801828.549 7 125079456.589 7  97464504.166 6  23801825.831 6  23801827.028 6
  24871001.106 7 130698000.552 7 101842587.073 5  24870999.837 5  24871001.084 5
  22903737.529 8 120359983.788 8  93787002.306 8  22903733.612 8  22903736.368 8
  24041500.231 8 126338990.153 8  98445971.148 6  24041495.609 6  24041499.836 6
  20817732.056 9 109397967.023 9  85245167.842 9  20817726.452 9  20817730.621 9
 09  6 30  0 13 30.0000000  0 10G22G 7G 3G 6G11G32G 8G16G18G19
  21741922.338 9 114254610.567 9  89029557.624 9  21741916.791 9  21741921.324 9
  24387002.895 7 128154578.488 7  99860709.932 6  24386999.034 6  24387001.783 6
  20148923.415 9 105883365.259 9  82506518.448 9  20148920.501 9  20148922.411 9
  20842845.434 9 109529966.670 9  85348037.390 9  20842842.444 9  20842844.452 9
  23072361.510 8 121246077.917 8  94477455.885 7  23072357.443 7  23072360.824 7
  23780737.533 7 124968619.054 7  97378137.252 6  23780734.535 6  23780735.782 6
  24868310.687 7 130683857.795 7 101831566.732 5  24868308.204 5  24868309.037 5
  22922958.471 8 120460990.948 8  93865709.143 7  22922954.901 7  22922957.619 7
  24056354.228 8 126417047.713 8  98506795.235 6  24056349.647 6  24056353.489 6
  20811673.816 9 109366131.641 9  85220361.057 9  20811668.221 9  20811672.800 9
 09  6 30  0 14  0.0000000  0 10G22G 7G 3G 6G11G32G 8G16G18G19
  21748994.543 9 114291777.051 9  89058518.527 9  21748989.472 9  21748994.168 9
  24395640.109 7 128199965.319 7  99896076.305 6  24395635.987 6  24395638.145 6
  20151735.718 9 105898143.917 9  82518034.281 9  20151732.738 9  20151734.807 9
  20847930.622 9 109556689.423 9  85368860.298 9  20847927.635 9  20847929.675 9
  23057282.749 8 121166837.072 8  94415709.780 7  23057278.010 7  23057281.759 7
  23759663.230 7 124857875.446 7  97291843.507 6  23759661.185 6  23759662.368 6
  24865722.700 7 130670263.722 7 101820973.977 5  24865721.025 5  24865721.419 5
  22942220.926 8 120562215.316 8  93944585.247 7  22942217.245 7  22942220.216 7
  24071266.878 8 126495416.338 8  98567861.698 6  24071262.686 6  24071267.294 6
  20805657.792 9 109334517.005 9  85195726.276 9  20805652.231 9  20805656.457 9
 09  6 30  0 14 30.0000000  0 10G22G 7G 3G 6G11G32G 8G16G18G19
  21756165.590 9 114329460.253 9  89087882.060 9  21756160.150 9  21756164.743 9
  24404345.245 7 128245719.213 7  99931728.704 6  24404342.888 6  24404344.827 6
  20154617.828 9 105913289.176 9  82529835.780 9  20154614.772 9  20154616.943 9
  20853072.553 9 109583710.366 9  85389915.560 9  20853069.547 9  20853071.491 9
  23042237.816 8 121087773.536 8  94354101.833 7  23042232.743 7  23042236.637 7
  23738608.088 7 124747228.518 7  97205625.111 6  23738605.678 6  23738606.724 6
  24863240.045 7 130657218.299 7 101810808.699 5  24863238.763 5  24863239.345 5
  22961524.206 8 120663654.223 8  94023628.559 7  22961520.361 7  22961523.610 7
  24086239.104 8 126574093.815 8  98629168.841 6  24086234.600 6  24086238.340 6
  20799684.056 9 109303124.437 9  85171264.520 9  20799678.174 9  20799682.457 9
 09  6 30  0 15  0.0000000  0 10G22G 7G 3G 6G11G32G 8G16G18G19
  21763434.357 9 114367658.816 9  89117647.177 9  21763429.076 9  21763433.541 9
  24413122.001 7 128291837.383 7  99967664.930 6  24413118.562 6  24413121.573 6
  20157569.607 9 105928801.570 9  82541923.359 9  20157566.732 9  20157568.906 9
  20858271.276 9 109611030.260 9  85411203.783 9  20858268.435 9  20858270.322 9
  23027226.223 8 121008887.859 8  94292632.462 7  23027221.556 7  23027225.122 7
  23717571.427 7 124636680.973 7  97119484.148 6  23717569.166 6  23717570.287 6
  24860862.834 7 130644721.245 7 101801070.730 5  24860859.541 5  24860861.171 5
  22980867.979 8 120765305.490 8  94102837.347 7  22980863.416 7  22980867.210 7
  24101269.238 7 126653077.926 7  98690714.902 6  24101263.900 6  24101268.046 6
  20793752.447 9 109271954.589 9  85146976.313 9  20793746.707 9  20793751.012 9
 09  6 30  0 15 30.0000000  0 10G22G 7G 3G 6G11G32G 8G16G18G19
  21770801.065 9 114406371.527 9  89147812.934 9  21770795.816 9  21770800.219 9
  24421967.252 7 128338317.498 7 100003883.176 6  24421963.462 6  24421967.188 6
  20160591.654 9 105944681.426 9  82554297.268 9  20160588.365 9  20160590.530 9
  20863526.888 9 109638649.300 9  85432725.106 9  20863524.167 9  20863526.107 9
  23012248.502 8 120930180.115 8  94231301.766 7  23012244.844 7  23012247.594 7
  23696554.289 7 124526235.606 7  97033422.827 6  23696552.423 6  23696553.252 6
  24858588.273 7 130632772.290 7 101791759.882 5  24858585.528 5  24858588.000 5
  23000251.454 8 120867166.660 8  94182209.702 7  23000246.759 7  23000250.326 7
  24116357.416 7 126732366.351 7  98752498.104 6  24116352.080 6  24116355.854 6
  20787863.655 9 109241008.416 9  85122862.407 9  20787858.073 9  20787862.201 9
 09  6 30  0 16  0.0000000  0 10G22G 7G 3G 6G11G32G 8G16G18G19
  21778265.482 9 114445596.837 9  89178378.116 9  21778259.988 9  21778264.679 9
  24430881.348 7 128385156.599 7 100040381.191 6  24430876.833 6  24430879.957 6
  20163683.389 9 105960929.004 9  82566957.714 9  20163680.451 9  20163682.313 9
  20868839.783 9 109666568.176 9  85454480.067 9  20868836.839 9  20868839.083 9
  22997304.593 8 120851650.850 8  94170110.165 7  22997301.439 7  22997304.276 7
  23675557.300 7 124415895.088 7  96947443.197 6  23675554.740 6  23675555.272 6
  24856419.528 7 130621371.429 7 101782876.095 5  24856416.788 5  24856418.891 5
  23019674.155 8 120969235.103 8  94261743.558 7  23019669.986 7  23019673.028 7
  24131502.823 7 126811957.014 7  98814516.807 6  24131497.034 6  24131502.195 6
  20782017.593 9 109210287.268 9  85098923.851 9  20782012.066 9  20782016.232 9
 09  6 30  0 16 30.0000000  0 10G22G 7G 3G 6G11G32G 8G16G18G19
  21785826.765 9 114485332.872 9  89209341.263 9  21785821.843 9  21785826.032 9
  24439862.085 7 128432352.167 7 100077156.965 6  24439857.805 6  24439861.304 6
  20166845.249 9 105977545.049 9  82579905.282 9  20166842.484 9  20166844.353 9
  20874209.823 9 109694787.405 9  85476469.078 9  20874206.836 9  20874208.827 9
  22982395.131 8 120773300.252 8  94109057.751 7  22982391.626 7  22982394.941 7
  23654580.532 7 124305662.209 7  96861547.448 6  23654578.270 6  23654578.668 6
  24854353.597 7 130610518.319 7 101774419.129 5  24854352.420 5  24854352.898 5
  23039136.207 8 121071508.675 8  94341437.244 7  23039132.400 7  23039134.788 7
  24146705.959 8 126891847.805 8  98876769.412 5  24146700.792 5  24146704.104 5
  20776214.708 9 109179792.246 9  85075161.504 9  20776208.995 9  20776213.280 9
 09  6 30  0 17  0.0000000  0 10G22G 7G 3G 6G11G32G 8G16G18G19
  21793485.491 9 114525578.852 9  89240701.771 9  21793480.172 9  21793484.647 9
  24448909.831 7 128479901.759 7 100114208.587 6  24448906.169 6  24448909.414 6
  20170077.454 9 105994530.097 9  82593140.385 9  20170074.385 9  20170076.428 9
  20879636.788 9 109723307.399 9  85498692.457 9  20879633.820 9  20879635.995 9
  22967519.073 8 120695129.036 8  94048145.121 7  22967516.060 7  22967519.327 7
  23633625.275 7 124195539.758 7  96775737.758 6  23633622.430 6  23633622.597 6
  24852392.366 7 130600212.504 7 101766388.654 5  24852391.483 5  24852391.092 5
  23058636.776 8 121173984.858 8  94421288.815 7  23058633.677 7  23058635.618 7
  24161964.957 7 126972036.337 7  98939253.986 6  24161960.283 6  24161964.011 6
  20770454.750 9 109149524.168 9  85051575.990 9  20770448.991 9  20770453.471 9
 09  6 30  0 17 30.0000000  0 11G22G 7G 3G 6G11G32G 8G16G14G18G19
  21801240.760 9 114566333.092 9  89272458.329 9  21801235.573 9  21801239.919 9
  24458025.285 7 128527802.743 7 100151534.024 6  24458021.026 6  24458024.433 6
  20173379.783 9 106011884.503 9  82606663.297 9  20173376.947 9  20173378.880 9
  20885121.258 9 109752128.728 9  85521150.640 9  20885118.237 9  20885120.369 9
  22952678.054 8 120617137.464 8  93987372.477 7  22952674.442 7  22952677.512 7
  23612690.128 7 124085530.419 7  96690016.203 6  23612688.320 6  23612688.884 6
  24850535.413 7 130590453.735 7 101758784.444 5  24850534.765 5  24850534.300 5
  23078175.150 8 121276660.917 8  94501296.110 7  23078172.112 7  23078174.121 7
  25118272.831 6
  24177280.469 7 127052520.156 7  99001968.674 6  24177276.604 6  24177279.786 6
  20764738.548 9 109119483.770 9  85028167.882 9  20764732.818 9  20764736.919 9
 09  6 30  0 18  0.0000000  0 11G22G 7G 3G 6G11G32G 8G16G14G18G19
  21809092.470 9 114607594.133 9  89304609.799 9  21809087.221 9  21809091.650 9
  24467206.057 7 128576052.607 7 100189131.331 5  24467203.977 5  24467205.885 5
  20176752.712 9 106029608.638 9  82620474.316 9  20176749.663 9  20176751.555 9
  20890663.297 9 109781251.690 9  85543843.854 9  20890660.444 9  20890662.306 9
  22937871.104 8 120539325.797 8  93926740.020 7  22937866.987 7  22937870.383 7
  23591779.169 7 123975636.997 7  96604384.921 6  23591776.527 6  23591777.216 6
  24848783.082 7 130581241.784 7 101751606.319 5  24848781.865 5  24848780.374 5
  23097751.153 8 121379534.412 8  94581457.257 7  23097747.970 7  23097750.634 7
  25104731.716 6 131926256.04716
  24192651.265 7 127133297.307 7  99064911.896 5  24192647.757 5  24192651.021 5
  20759065.583 9 109089672.461 9  85004938.285 9  20759059.813 9  20759064.196 9
 09  6 30  0 18 30.0000000  0 11G22G 7G 3G 6G11G32G 8G16G14G18G19
  21817040.269 9 114649360.618 9  89337155.116 9  21817035.348 9  21817039.333 9
  24476454.120 7 128624648.443 7 100226998.213 6  24476451.364 6  24476452.835 6
  20180195.796 9 106047703.010 9  82634573.825 9  20180192.825 9  20180194.893 9
  20896262.756 9 109810676.924 9  85566772.602 9  20896259.633 9  20896261.766 9
  22923098.635 8 120461694.494 8  93866248.094 7  22923094.332 7  22923097.743 7
  23570889.570 7 123865862.159 7  96518846.065 6  23570887.350 6  23570888.255 6
  24847134.198 7 130572576.658 7 101744854.255 5  24847132.296 5  24847132.010 5
  23117364.601 8 121482603.585 8  94661770.912 7  23117361.473 7  23117363.761 7
  25091209.340 6 131855192.356 6
  24208079.081 7 127214365.054 7  99128081.555 5  24208074.208 5  24208077.270 5
  20753436.371 9 109060091.220 9  84981887.962 9  20753430.772 9  20753435.179 9
 09  6 30  0 19  0.0000000  0 11G22G 7G 3G 6G11G32G 8G16G14G18G19
  21825083.937 9 114691631.008 9  89370093.089 9  21825079.291 9  21825083.399 9
  24485766.797 7 128673587.346 7 100265132.434 6  24485764.114 6  24485766.255 6
  20183709.663 9 106066168.126 9  82648962.225 9  20183706.555 9  20183708.627 9
  20901919.895 9 109840404.885 9  85589937.242 9  20901917.018 9  20901918.951 9
  22908359.857 8 120384243.948 8  93805897.015 7  22908355.828 7  22908359.527 7
  23550023.637 7 123756208.695 7  96433401.828 6  23550020.501 6  23550021.619 6
  24845588.282 6 130564457.809 6 101738527.889 5  24845586.622 5  24845586.902 5
  23137015.161 8 121585865.584 8  94742234.809 7  23137011.393 7  23137014.282 7
  25077704.569 6 131784226.727 6
  24223560.593 7 127295721.492 7  99191476.226 5  24223556.645 5  24223558.505 5
  20747851.163 9 109030741.043 9  84959017.685 9  20747845.699 9  20747849.836 9
 09  6 30  0 19 30.0000000  0 11G22G 7G 3G 6G11G32G 8G16G14G18G19
  21833223.611 9 114734403.606 9  89403422.393 9  21833218.432 9  21833222.804 9
  24495145.246 7 128722867.104 7 100303532.262 6  24495141.880 6  24495144.279 6
  20187294.136 9 106085004.373 9  82663639.811 9  20187291.001 9  20187293.150 9
  20907634.642 9 109870436.035 9  85613338.134 9  20907631.698 9  20907633.767 9
  22893656.293 8 120306974.392 8  93745686.950 7  22893651.575 7  22893655.403 7
  23529180.242 7 123646679.369 7  96348054.264 6  23529176.941 6  23529179.050 6
  24844148.869 7 130556885.123 7 101732627.100 5  24844145.316 5  24844146.037 5
  23156701.399 8 121689317.729 8  94822846.879 7  23156697.718 7  23156700.547 7
  25064218.905 6 131713361.855 6
  24239096.481 8 127377364.262 8  99255093.982 6  24239092.789 6  24239094.254 6
  20742310.298 9 109001623.013 9  84936328.298 9  20742304.558 9  20742309.029 9
 09  6 30  0 20  0.0000000  0 11G22G 7G 3G 6G11G32G 8G16G14G18G19
  21841458.177 9 114777676.993 9  89437141.921 9  21841452.938 9  21841457.366 9
  24504586.780 7 128772484.835 7 100342195.439 6  24504583.620 6  24504586.814 6
  20190949.252 9 106104211.863 9  82678606.679 9  20190946.388 9  20190948.148 9
  20913407.261 9 109900770.746 9  85636975.562 9  20913404.247 9  20913406.272 9
  22878986.642 8 120229886.258 8  93685618.259 7  22878982.619 7  22878985.978 7
  23508361.670 8 123537276.820 8  96262805.453 6  23508357.978 6  23508360.438 6
  24842810.564 7 130549857.915 7 101727151.303 5  24842807.978 5  24842809.587 5
  23176423.256 8 121792957.924 8  94903605.482 7  23176420.000 7  23176422.543 7
  25050753.200 6 131642600.768 6
  24254686.668 8 127459291.268 8  99318933.191 6  24254682.776 6  24254685.319 6
  20736813.600 9 108972738.116 9  84913820.575 9  20736807.815 9  20736812.209 9
 09  6 30  0 20 30.0000000  0 11G22G 7G 3G 6G11G32G 8G16G14G18G19
  21849787.973 9 114821449.733 9  89471250.554 9  21849782.549 9  21849787.236 9
  24514092.440 7 128822437.945 7 100381119.941 6  24514090.327 6  24514092.276 6
  20194674.908 9 106123791.096 9  82693863.222 9  20194672.137 9  20194673.969 9
  20919237.415 9 109931409.588 9  85660849.972 9  20919234.510 9  20919236.706 9
  22864351.943 8 120152980.047 8  93625691.346 7  22864348.079 7  22864351.101 7
  23487567.839 7 123428003.928 7  96177657.711 6  23487564.614 6  23487566.425 6
  24841577.110 7 130543375.759 7 101722100.302 5  24841575.125 5  24841576.796 5
  23196180.800 8 121896783.472 8  94984508.517 7  23196177.299 7  23196179.687 7
  25037308.189 6 131571946.494 6
  24270330.616 8 127541500.144 8  99382992.058 6  24270326.582 6  24270329.472 6
  20731361.614 9 108944087.540 9  84891495.445 9  20731355.896 9  20731360.085 9
 09  6 30  0 21  0.0000000  0 11G22G 7G 3G 6G11G32G 8G16G14G18G19
  21858212.393 9 114865720.141 9  89505746.984 9  21858206.733 9  21858211.719 9
  24523661.570 7 128872723.686 7 100420303.601 6  24523658.412 6  24523661.208 6
  20198471.584 9 106143742.793 9  82709409.994 9  20198468.644 9  20198470.696 9
  20925125.779 9 109962352.993 9  85684961.710 9  20925122.827 9  20925124.903 9
  22849751.842 8 120076255.873 8  93565906.287 7  22849748.484 7  22849751.087 7
  23466799.149 8 123318863.404 8  96092613.134 6  23466796.342 6  23466797.823 6
  24840446.678 7 130537438.231 7 101717473.614 5  24840444.889 5  24840446.053 5
  23215972.566 8 122000792.240 8  95065554.303 7  23215969.125 7  23215971.978 7
  25023885.030 6 131501402.181 6
  24286027.449 8 127623988.594 8  99447268.727 6  24286023.841 6  24286026.764 6
  20725954.148 9 108915672.158 9  84869353.590 9  20725948.827 9  20725952.928 9
 09  6 30  0 21 30.0000000  0 11G22G 7G 3G 6G11G32G 8G16G14G18G19
  21866731.122 9 114910486.482 9  89540629.855 9  21866725.685 9  21866730.529 9
  24533293.202 7 128923339.316 7 100459744.361 6  24533290.252 6  24533293.196 6
  20202339.172 9 106164067.260 9  82725247.240 9  20202336.356 9  20202338.175 9
  20931072.199 9 109993601.469 9  85709311.162 9  20931069.347 9  20931071.126 9
  22835186.526 8 119999714.382 8  93506263.587 7  22835183.079 7  22835185.546 7
  23446056.416 8 123209858.022 8  96007673.864 6  23446053.228 6  23446055.118 6
  24839419.931 7 130532044.911 7 101713271.012 5  24839418.554 5  24839418.591 5
  23235799.787 8 122104981.769 8  95146740.945 7  23235795.852 7  23235798.650 7
  25010482.410 7 131430970.891 7
  24301777.280 8 127706754.538 8  99511761.703 6  24301773.996 6  24301775.954 6
  20720591.836 9 108887493.107 9  84847395.890 9  20720586.301 9  20720590.624 9
 09  6 30  0 22  0.0000000  0 11G22G 7G 3G 6G11G32G 8G16G14G18G19
  21875343.975 9 114955747.318 9  89575898.050 9  21875338.524 9  21875343.482 9
  24542986.260 7 128974282.291 7 100499440.189 6  24542984.450 6  24542987.874 6
  20206277.892 9 106184764.825 9  82741375.215 9  20206274.932 9  20206276.951 9
  20937076.619 9 110025155.181 9  85733898.463 9  20937073.560 9  20937075.680 9
  22820655.999 8 119923355.848 8  93446763.451 8  22820652.674 8  22820654.741 8
  23425339.547 8 123100990.505 8  95922841.997 6  23425336.355 6  23425337.641 6
  24838497.305 7 130527195.349 7 101709492.167 6  24838495.834 6  24838496.387 6
  23255659.845 8 122209349.352 8  95228066.359 7  23255656.391 7  23255659.013 7
  24997102.634 7 131360655.543 7
  24317579.531 7 127789795.394 7  99576468.945 6  24317576.095 6  24317578.304 6
  20715274.704 9 108859551.491 9  84825623.198 9  20715269.278 9  20715273.501 9
 09  6 30  0 22 30.0000000  0 11G22G 7G 3G 6G11G32G 8G16G14G18G19
  21884050.644 9 115001501.178 9  89611550.416 9  21884045.013 9  21884050.004 9
  24552744.259 7 129025549.696 7 100539388.817 6  24552740.153 6  24552743.224 6
  20210287.557 9 106205835.846 9  82757794.184 9  20210284.671 9  20210286.630 9
  20943139.361 9 110057014.818 9  85758724.140 9  20943136.394 9  20943138.632 9
  22806160.455 8 119847180.360 8  93387405.927 7  22806156.707 7  22806159.159 7
  23404649.146 7 122992263.600 7  95838119.730 6  23404647.180 6  23404648.558 6
  24837678.646 7 130522888.642 7 101706136.332 6  24837676.807 6  24837676.415 6
  23275554.193 8 122313892.682 8  95309528.708 7  23275549.814 7  23275553.030 7
  24983744.040 7 131290459.415 7 102304236.06415  24983739.998 5  24983744.786 5
  24333433.025 7 127873109.006 7  99641388.607 5  24333429.585 5  24333431.863 5
  20710003.372 9 108831848.423 9  84804036.384 9  20709997.706 9  20710001.722 9
 09  6 30  0 23  0.0000000  0 11G22G 7G 3G 6G11G32G 8G16G14G18G19
  21892850.717 9 115047746.387 9  89647585.655 9  21892845.465 9  21892850.205 9
  24562559.442 7 129077138.753 7 100579588.092 6  24562556.720 6  24562559.465 6
  20214368.440 9 106227280.447 9  82774504.255 9  20214365.283 9  20214367.416 9
  20949260.424 9 110089180.688 9  85783788.445 9  20949257.427 9  20949259.617 9
  22791699.473 8 119771188.619 8  93328191.567 7  22791695.219 7  22791698.468 7
  23383986.860 7 122883680.112 7  95753509.221 6  23383983.702 6  23383985.320 6
  24836961.510 7 130519124.632 7 101703203.390 5  24836959.846 5  24836959.759 5
  23295480.667 8 122418608.959 8  95391125.807 7  23295476.482 7  23295479.952 7
  24970409.994 7 131220385.316 7 102249632.873 6  24970405.496 6  24970408.318 6
  24349338.552 7 127956693.157 7  99706519.113 6  24349335.306 6  24349337.258 6
  20704777.174 9 108804384.764 9  84782636.130 9  20704771.683 9  20704775.694 9
 09  6 30  0 23 30.0000000  0 11G22G 7G 3G 6G11G32G 8G16G14G18G19
  21901743.925 9 115094481.030 9  89684002.272 9  21901738.695 9  21901743.349 9
  24572438.155 7 129129046.750 7 100620035.877 6  24572434.988 6  24572437.605 6
  20218520.428 9 106249099.349 9  82791505.992 9  20218517.399 9  20218519.509 9
  20955439.695 9 110121653.364 9  85809091.817 9  20955436.953 9  20955438.803 9
  22777274.026 8 119695380.682 8  93269120.441 7  22777269.407 7  22777272.863 7
  23363351.285 8 122775242.707 8  95669012.577 6  23363349.008 6  23363350.436 6
  24836348.374 7 130515902.776 7 101700692.839 5  24836345.640 5  24836346.806 5
  23315440.307 8 122523496.125 8  95472856.069 7  23315436.236 7  23315439.587 7
  24957098.326 7 131150436.337 7 102195127.177 5  24957096.202 5  24957098.331 5
  24365295.541 7 128040545.448 7  99771858.586 6  24365291.833 6  24365293.042 6
  20699596.706 9 108777161.673 9  84761423.330 9  20699591.143 9  20699595.199 9
 09  6 30  0 24  0.0000000  0 11G22G 7G 3G 6G11G32G 8G16G14G18G19
  21910730.062 9 115141703.532 9  89720799.032 9  21910724.815 9  21910729.574 9
  24582375.804 7 129181270.936 7 100660730.029 6  24582372.558 6  24582375.575 6
  20222743.785 9 106271292.839 9  82808799.615 9  20222740.758 9  20222742.571 9
  20961677.481 9 110154433.101 9  85834634.462 9  20961674.677 9  20961676.630 9
  22762883.150 9 119619757.191 9  93210193.057 7  22762878.564 7  22762882.924 7
  23342744.872 8 122666954.129 8  95584631.886 6  23342742.088 6  23342743.794 6
  24835838.168 7 130513222.283 7 101698604.115 5  24835834.994 5  24835837.807 5
  23335431.512 8 122628551.564 8  95554717.449 7  23335427.904 7  23335430.736 7
  24943811.249 7 131080615.421 7 102140721.231 5  24943808.001 5  24943809.404 5
  24381302.232 7 128124663.613 7  99837405.234 6  24381298.471 6  24381300.548 6
  20694462.345 9 108750180.421 9  84740398.972 9  20694456.627 9  20694460.959 9
 09  6 30  0 24 30.0000000  0 11G22G 7G 3G 6G11G32G 8G16G14G18G19
  21919808.843 9 115189412.448 9  89757974.815 9  21919803.055 9  21919807.956 9
  24592373.434 7 129233808.994 7 100701668.792 5  24592369.534 5  24592373.621 5
  20227038.360 9 106293860.970 9  82826385.168 9  20227035.438 9  20227037.308 9
  20967973.888 9 110187520.410 9  85860416.769 9  20967970.796 9  20967972.832 9
  22748527.244 8 119544318.141 8  93151409.400 7  22748523.016 7  22748527.199 7
  23322167.476 7 122558817.135 7  95500369.315 6  23322164.366 6  23322165.630 6
  24835431.677 7 130511082.633 7 101696936.870 4  24835427.358 4  24835431.380 4
  23355454.503 8 122733772.970 8  95636708.150 7  23355450.825 7  23355453.734 7
  24930550.410 7 131010925.708 7 102086417.545 6  24930547.547 6  24930549.590 6
  24397359.110 7 128209045.479 7  99903157.338 6  24397355.501 6  24397358.435 6
  20689374.268 9 108723441.800 9  84719563.677 9  20689368.319 9  20689372.823 9
 09  6 30  0 25  0.0000000  0 11G22G 7G 3G 6G11G32G 8G16G14G18G19
  21928979.636 9 115237605.953 9  89795528.194 9  21928974.105 9  21928978.771 9
  24602430.712 7 129286657.458 7 100742849.396 6  24602425.829 6  24602429.835 6
  20231404.261 9 106316804.435 9  82844263.189 9  20231401.328 9  20231403.189 9
  20974328.685 9 110220915.583 9  85886438.977 9  20974325.848 9  20974327.930 9
  22734206.512 8 119469063.981 8  93092769.806 7  22734202.787 7  22734206.173 7
  23301618.511 8 122450834.435 8  95416226.980 7  23301615.934 7  23301617.028 7
  24835127.004 7 130509483.044 7 101695690.484 5  24835123.791 5  24835127.451 5
  23375508.964 8 122839157.820 8  95718826.195 7  23375505.224 7  23375508.115 7
  24917314.070 7 130941370.216 7 102032218.433 5  24917311.077 5  24917313.484 5
  24413466.959 7 128293688.840 7  99969113.212 6  24413461.684 6  24413466.300 6
  20684332.244 9 108696946.848 9  84698918.257 9  20684326.609 9  20684331.041 9
 09  6 30  0 25 30.0000000  0 11G22G 7G 3G 6G11G32G 8G16G14G18G19
  21938242.467 9 115286282.260 9  89833457.788 9  21938236.775 9  21938241.707 9
  24612545.386 7 129339813.595 7 100784269.768 5  24612541.219 5  24612544.703 5
  20235841.711 9 106340123.511 9  82862433.896 9  20235838.686 9  20235840.796 9
  20980742.310 9 110254619.136 9  85912701.477 9  20980739.301 9  20980741.293 9
  22719922.059 8 119393995.108 8  93034274.564 8  22719917.848 8  22719920.965 8
  23281100.168 8 122343008.898 8  95332207.095 7  23281097.222 7  23281098.618 7
  24834925.812 7 130508422.848 7 101694864.320 4  24834922.643 4  24834924.725 4
  23395593.240 8 122944703.046 8  95801069.190 7  23395589.265 7  23395592.685 7
  24904104.760 7 130871952.033 7 101978126.331 5  24904101.093 5  24904103.233 5
  24429623.239 7 128378591.114 7 100035270.822 5  24429618.360 5  24429623.289 5
  20679337.033 9 108670696.628 9  84678463.540 9  20679331.451 9  20679335.585 9
 09  6 30  0 26  0.0000000  0 11G22G 7G 3G 6G11G32G 8G16G14G18G19
  21947596.815 9 115335439.648 9  89871762.252 9  21947591.633 9  21947595.925 9
  24622719.367 7 129393274.939 7 100825927.982 5  24622714.906 5  24622718.687 5
  20240350.767 9 106363818.227 9  82880897.309 9  20240347.556 9  20240349.793 9
  20987214.421 9 110288631.364 9  85939204.508 9  20987211.675 9  20987213.661 9
  22705672.198 8 119319112.038 8  92975924.140 8  22705668.455 8  22705671.166 8
  23260611.478 8 122235343.115 8  95248311.689 7  23260609.529 7  23260610.379 7
  24834826.172 7 130507901.601 7 101694458.132 5  24834823.369 5  24834824.973 5
  23415707.753 8 123050407.230 8  95883436.037 7  23415704.008 7  23415707.301 7
  24890920.549 7 130802674.015 7 101924143.474 4  24890917.683 4  24890920.823 4
  24445828.487 7 128463750.007 7 100101628.384 5  24445823.669 5  24445828.029 5
  20674388.386 9 108644692.481 9  84658200.568 9  20674382.932 9  20674387.073 9
 09  6 30  0 26 30.0000000  0 11G22G 7G 3G 6G11G32G 8G16G14G18G19
  21957042.581 9 115385076.425 9  89910440.266 9  21957037.055 9  21957041.860 9
  24632950.589 7 129447038.420 7 100867821.619 5  24632946.079 5  24632949.954 5
  20244931.275 9 106387889.369 9  82899654.040 9  20244928.264 9  20244930.292 9
  20993745.726 9 110322952.731 9  85965948.424 9  20993742.964 9  20993744.969 9
  22691457.410 8 119244415.042 8  92917718.706 8  22691454.954 8  22691456.826 8
  23240154.708 8 122127839.899 8  95164543.010 7  23240152.852 7  23240152.970 7
  24834829.639 7 130507918.128 7 101694471.072 5  24834827.100 5  24834827.961 5
  23435852.256 8 123156267.400 8  95965924.451 7  23435848.437 7  23435851.562 7
  24877765.598 7 130733539.143 7 101870272.117 5  24877761.398 5  24877764.310 5
  24462082.181 7 128549163.605 7 100168184.446 6  24462078.223 6  24462082.028 6
  20669487.139 9 108618935.458 9  84638130.154 9  20669481.789 9  20669485.778 9
 09  6 30  0 27  0.0000000  0 11G22G 7G 3G 6G11G32G 8G16G14G18G19
  21966578.792 9 115435190.858 9  89949490.477 9  21966573.889 9  21966578.331 9
  24643237.710 7 129501101.353 7 100909948.577 6  24643233.973 6  24643238.511 6
  20249583.473 9 106412337.070 9  82918704.191 9  20249580.547 9  20249582.617 9
  21000335.805 9 110357583.618 9  85992933.519 9  21000332.988 9  21000334.997 9
  22677278.629 8 119169904.255 8  92859658.362 8  22677275.737 8  22677277.803 8
  23219728.711 8 122020501.987 8  95080903.102 6  23219726.173 6  23219727.597 6
  24834935.195 7 130508472.093 7 101694902.739 5  24834932.366 5  24834933.106 5
  23456026.511 8 123262280.459 8  96048531.980 7  23456022.054 7  23456024.758 7
  24864637.755 7 130664550.650 7 101816514.888 5  24864633.455 5  24864636.202 5
  24478384.545 8 128634829.340 8 100234936.935 6  24478379.620 6  24478383.388 6
  20664633.035 9 108593426.733 9  84618253.219 9  20664627.685 9  20664631.640 9
 09  6 30  0 27 30.0000000  0 11G22G 7G 3G 6G11G32G 8G16G14G18G19
  21976205.705 9 115485781.154 9  89988911.491 9  21976200.485 9  21976205.039 9
  24653582.137 7 129555460.885 7 100952306.638 6  24653578.773 6  24653582.392 6
  20254307.321 9 106437161.226 9  82938047.686 9  20254304.448 9  20254306.320 9
  21006984.850 9 110392524.317 9  86020160.036 9  21006981.948 9  21006983.933 9
  22663135.732 9 119095580.054 9  92801743.413 8  22663132.365 8  22663134.694 8
  23199335.010 8 121913332.162 8  94997394.161 7  23199332.387 7  23199334.595 7
  24835141.254 7 130509562.658 7 101695752.591 5  24835139.626 5  24835141.601 5
  23476228.627 8 123368444.457 8  96131257.122 7  23476224.947 7  23476227.298 7
  24851538.179 6 130595711.708 6 101762874.192 5  24851534.233 5  24851537.765 5
  24494733.135 8 128720744.820 8 100301884.092 6  24494729.443 6  24494732.747 6
  20659826.377 9 108568167.070 9  84598570.362 9  20659821.016 9  20659825.083 9
 09  6 30  0 28  0.0000000  0 11G22G 7G 3G 6G11G32G 8G16G14G18G19
  21985922.763 9 115536845.567 9  90028701.942 9  21985918.263 9  21985922.356 9
  24663982.680 7 129610114.430 7 100994893.815 6  24663979.446 6  24663981.900 6
  20259102.918 9 106462362.248 9  82957684.840 9  20259099.992 9  20259101.855 9
  21013692.890 9 110427775.192 9  86047628.252 9  21013689.843 9  21013692.008 9
  22649027.799 9 119021442.810 9  92743974.152 8  22649024.346 8  22649026.927 8
  23178973.970 8 121806333.115 8  94914018.286 7  23178970.900 7  23178973.323 7
  24835452.619 7 130511189.167 7 101697019.965 5  24835450.011 5  24835450.799 5
  23496459.392 8 123474757.617 8  96214098.493 7  23496455.476 7  23496457.968 7
  24838467.144 6 130527025.086 6 101709352.147 5  24838463.653 5  24838466.450 5
  24511129.580 8 128806907.808 8 100369024.145 6  24511125.181 6  24511127.916 6
  20655067.279 9 108543157.458 9  84579082.354 9  20655061.643 9  20655065.790 9
 09  6 30  0 28 30.0000000  0 11G22G 7G 3G 6G11G32G 8G16G14G18G19
  21995730.189 9 115588382.182 9  90068860.350 9  21995725.014 9  21995729.244 9
  24674437.777 7 129665058.936 7 101037707.724 6  24674435.230 6  24674437.184 6
  20263970.342 9 106487940.755 9  82977616.141 9  20263967.480 9  20263969.367 9
  21020459.952 9 110463336.670 9  86075338.491 9  21020456.874 9  21020458.947 9
  22634955.355 8 118947492.881 8  92686350.840 8  22634951.725 8  22634954.547 8
  23158645.739 8 121699507.567 8  94830777.625 6  23158642.444 6  23158644.943 6
  24835863.004 7 130513350.628 7 101698704.245 5  24835861.175 5  24835862.956 5
  23516717.869 8 123581216.867 8  96297053.735 6  23516714.030 6  23516716.672 6
  24825425.829 7 130458493.930 7 101655951.261 5  24825422.258 5  24825425.309 5
  24527572.441 7 128893316.195 7 100436355.364 6  24527567.850 6  24527571.821 6
  20650355.982 9 108518399.385 9  84559790.352 9  20650350.287 9  20650354.320 9
 09  6 30  0 29  0.0000000  0 11G22G 7G 3G 6G11G32G 8G16G14G18G19
  22005626.626 9 115640389.507 9  90109385.533 9  22005621.578 9  22005626.037 9
  24684948.645 7 129720291.682 7 101080746.220 5  24684945.674 5  24684947.472 5
  20268909.657 9 106513897.035 9  82997841.808 9  20268906.663 9  20268908.702 9
  21027286.110 9 110499209.104 9  86103291.030 9  21027283.430 9  21027285.424 9
  22620918.511 9 118873730.482 9  92628873.648 8  22620914.982 8  22620917.924 8
  23138350.572 8 121592858.201 8  94747674.239 6  23138347.842 6  23138349.931 6
  24836377.094 7 130516046.199 7 101700804.685 5  24836374.051 5  24836375.997 5
  23537003.696 8 123687819.599 8  96380120.764 6  23537000.073 6  23537002.196 6
  24812414.871 7 130390121.213 7 101602673.867 4  24812411.391 4  24812415.172 4
  24544061.243 7 128979967.478 7 100503875.783 5  24544056.640 5  24544061.169 5
  20645692.590 9 108493894.023 9  84540695.268 9  20645687.038 9  20645691.424 9
 09  6 30  0 29 30.0000000  0 11G22G 7G 3G 6G11G32G 8G16G14G18G19
  22015612.787 9 115692865.307 9  90150275.773 9  22015607.274 9  22015611.964 9
  24695513.496 7 129775809.659 7 101124006.966 6  24695510.179 6  24695512.187 6
  20273920.927 9 106540231.102 9  83018361.852 9  20273918.072 9  20273919.969 9
  21034171.918 9 110535392.820 9  86131486.127 9  21034168.652 9  21034171.157 9
  22606918.159 9 118800155.983 9  92571542.880 8  22606914.255 8  22606916.977 8
  23118090.557 8 121486387.804 8  94664710.314 7  23118087.116 7  23118089.455 7
  24836990.540 7 130519274.936 7 101703320.599 5  24836988.245 5  24836990.092 5
  23557316.557 8 123794563.355 8  96463297.674 6  23557312.591 6  23557315.570 6
  24799434.745 7 130321909.940 7 101549522.201 5  24799431.173 5  24799433.878 5
  24560597.154 7 129066859.540 7 100571583.851 6  24560592.498 6  24560596.162 6
  20641077.758 9 108469642.169 9  84521797.714 9  20641072.065 9  20641076.235 9
 09  6 30  0 30  0.0000000  0 11G22G 7G 3G 6G11G32G 8G16G14G18G19
  22025687.571 9 115745808.215 9  90191529.988 9  22025681.653 9  22025686.794 9
  24706131.759 7 129831609.985 7 101167487.758 6  24706128.704 6  24706130.966 6
  20279004.196 9 106566943.514 9  83039176.713 9  20279001.221 9  20279003.053 9
  21041116.670 9 110571888.080 9  86159923.993 9  21041113.590 9  21041115.767 9
  22592953.100 9 118726769.686 9  92514358.760 8  22592949.217 8  22592951.926 8
  23097864.650 8 121380099.121 8  94581887.938 7  23097861.230 7  23097863.194 7
  24837706.670 7 130523035.810 7 101706251.159 4  24837703.121 4  24837704.828 4
  23577655.545 8 123901445.979 8  96546582.800 6  23577652.088 6  23577654.652 6
  24786485.132 7 130253863.135 7 101496498.764 4  24786482.651 4  24786485.842 4
  24577177.293 7 129153989.710 7 100639477.507 5  24577173.251 5  24577176.376 5
  20636511.211 9 108445644.942 9  84503098.571 9  20636505.533 9  20636509.733 9
 09  6 30  0 30 30.0000000  0 11G22G 7G 3G 6G11G32G 8G16G14G18G19
  22035850.668 9 115799216.153 9  90233146.569 9  22035845.274 9  22035849.950 9
  24716803.637 7 129887689.873 7 101211186.380 6  24716799.391 6  24716802.951 6
  20284159.287 9 106594033.945 9  83060286.141 9  20284156.509 9  20284158.360 9
  21048120.786 9 110608695.305 9  86188604.950 9  21048117.778 9  21048119.892 9
  22579023.793 9 118653571.874 9  92457321.531 8  22579020.613 8  22579023.126 8
  23077673.448 8 121273994.825 8  94499209.301 7  23077670.820 7  23077672.278 7
  24838523.570 7 130527328.301 7 101709595.986 5  24838519.208 5  24838521.396 5
  23598020.535 8 124008464.650 8  96629973.925 7  23598016.913 7  23598020.000 7
  24773568.591 7 130185984.006 7 101443605.993 5  24773566.047 5  24773567.514 5
  24593801.879 7 129241355.852 7 100707554.993 6  24593797.974 6  24593801.035 6
  20631993.548 9 108421903.510 9  84484598.761 9  20631987.899 9  20631991.930 9
 09  6 30  0 31  0.0000000  0 11G22G 7G 3G 6G11G32G 8G16G14G18G19
  22046102.101 9 115853087.031 9  90275123.885 9  22046096.198 9  22046101.167 9
  24727527.604 7 129944046.480 7 101255100.646 6  24727524.012 6  24727527.797 6
  20289386.523 9 106621503.117 9  83081690.695 9  20289383.403 9  20289385.624 9
  21055184.350 9 110645814.955 9  86217529.356 9  21055181.456 9  21055183.615 9
  22565130.887 9 118580562.922 9  92400431.470 8  22565127.264 8  22565130.047 8
  23057518.078 8 121168077.713 8  94416676.481 7  23057515.382 7  23057516.940 7
  24839441.129 7 130532150.960 7 101713353.958 4  24839437.186 4  24839439.345 4
  23618410.981 8 124115616.824 8  96713469.111 7  23618407.227 7  23618410.202 7
  24760684.477 7 130118275.489 7 101390846.119 5  24760680.925 5  24760682.993 5
  24610472.423 7 129328955.998 7 100775814.866 6  24610467.439 6  24610470.573 6
  20627524.408 9 108398418.881 9  84466299.053 9  20627518.732 9  20627523.074 9
 09  6 30  0 31 30.0000000  0 11G22G 7G 3G 6G11G32G 8G16G14G18G19
  22056440.778 9 115907419.259 9  90317460.700 9  22056435.414 9  22056440.312 9
  24738304.172 7 130000676.861 7 101299228.235 5  24738300.644 5  24738303.472 5
  20294685.736 9 106649350.988 9  83103390.335 9  20294682.901 9  20294684.830 9
  21062307.494 9 110683247.117 9  86246697.270 9  21062304.474 9  21062306.689 9
  22551273.932 9 118507743.078 9  92343688.735 8  22551269.830 8  22551273.050 8
  23037398.959 8 121062350.436 8  94334291.586 7  23037395.939 7  23037397.736 7
  24840459.155 7 130537503.116 7 101717524.440 5  24840457.057 5  24840458.585 5
  23638826.606 8 124222900.076 8  96797066.424 7  23638822.477 7  23638825.142 7
  24747832.835 7 130050740.444 7 101338221.453 5  24747829.241 5  24747831.331 5
  24627185.514 7 129416787.556 7 100844255.066 6  24627180.827 6  24627183.647 6
  20623104.537 9 108375192.159 9  84448200.316 9  20623099.027 9  20623102.950 9
 09  6 30  0 32  0.0000000  0 11G22G 7G 3G 6G11G32G 8G16G14G18G19
  22066867.287 9 115962210.764 9  90360155.384 9  22066861.589 9  22066866.318 9
  24749131.329 7 130057578.220 7 101343566.965 6  24749128.807 6  24749130.869 6
  20300057.258 9 106677578.078 9  83125385.472 9  20300054.210 9  20300056.285 9
  21069490.247 9 110720992.219 9  86276109.026 9  21069487.179 9  21069489.501 9
  22537452.174 9 118435112.788 9  92287093.735 8  22537448.752 8  22537451.714 8
  23017316.891 8 120956815.773 8  94252056.783 7  23017312.930 7  23017315.236 7
  24841577.887 7 130543384.097 7 101722107.001 4  24841576.960 4  24841577.373 4
  23659266.458 8 124330312.087 8  96880764.076 7  23659262.299 7  23659265.227 7
  24735014.894 7 129983382.156 7 101285734.484 5  24735010.969 5  24735013.459 5
  24643943.046 7 129504848.192 7 100912873.732 6  24643938.120 6  24643941.850 6
  20618733.787 9 108352224.674 9  84430303.583 9  20618728.143 9  20618732.533 9
 09  6 30  0 32 30.0000000  0 11G22G 7G 3G 6G11G32G 8G16G14G18G19
  22077380.653 9 116017459.470 9  90403206.332 9  22077375.835 9  22077379.890 9
  24760011.151 7 130114747.661 7 101388114.568 6  24760007.429 6  24760010.422 6
  20305500.932 9 106706184.359 9  83147676.086 9  20305497.749 9  20305499.912 9
  21076732.380 9 110759050.484 9  86305764.814 9  21076729.725 9  21076731.621 9
  22523667.429 9 118362672.310 9  92230646.648 8  22523663.613 8  22523666.751 8
  22997270.614 8 120851476.398 8  94169974.142 7  22997267.802 7  22997269.497 7
  24842797.579 7 130549792.614 7 101727100.690 5  24842796.875 5  24842797.048 5
  23679729.947 8 124437850.016 8  96964559.845 7  23679726.149 7  23679729.016 7
  24722231.348 7 129916203.590 7 101233387.600 5  24722227.574 5  24722229.997 5
  24660743.089 7 129593135.561 7 100981669.095 5  24660738.628 5  24660741.999 5
  20614412.811 9 108329517.468 9  84412609.661 9  20614407.159 9  20614411.327 9
 09  6 30  0 33  0.0000000  0 11G22G 7G 3G 6G11G32G 8G16G14G18G19
  22087981.250 9 116073163.706 9  90446612.226 9  22087975.841 9  22087979.899 9
  24770940.414 7 130172182.222 7 101432868.773 5  24770936.884 5  24770940.336 5
  20311016.556 9 106735170.339 9  83170262.567 9  20311013.599 9  20311015.634 9
  21084034.303 9 110797422.347 9  86335664.969 9  21084031.626 9  21084033.280 9
  22509918.573 9 118290422.028 9  92174347.766 8  22509914.633 8  22509918.000 8
  22977263.597 8 120746335.135 8  94088045.899 7  22977260.350 7  22977261.582 7
  24844117.386 7 130556727.534 7 101732504.508 5  24844115.874 5  24844115.785 5
  23700217.396 8 124545511.888 8  97048452.220 7  23700213.565 7  23700216.280 7
  24709481.472 7 129849207.347 7 101181182.800 5  24709478.354 5  24709480.600 5
  24677586.464 7 129681647.342 7 101050639.298 5  24677582.895 5  24677585.760 5
  20610141.520 9 108307071.344 9  84395119.176 9  20610135.810 9  20610140.030 9
 09  6 30  0 33 30.0000000  0 11G22G 7G 3G 6G11G32G 8G16G14G18G19
  22098667.418 9 116129320.817 9  90490371.026 9  22098662.192 9  22098666.644 9
  24781919.585 7 130229878.653 7 101477827.008 6  24781916.348 6  24781919.793 6
  20316604.694 9 106764535.836 9  83193144.770 9  20316601.797 9  20316603.819 9
  21091395.821 9 110836108.025 9  86365809.656 9  21091393.103 9  21091395.176 9
  22496206.211 9 118218361.820 9  92118196.997 8  22496202.277 8  22496205.450 8
  22957293.586 8 120641394.526 8  94006274.007 7  22957290.924 7  22957292.271 7
  24845537.805 7 130564187.753 7 101738317.678 5  24845535.344 5  24845536.386 5
  23720728.114 8 124653295.021 8  97132439.076 7  23720724.183 7  23720726.925 7
  24696768.770 7 129782396.520 7 101129122.434 5  24696765.864 5  24696767.469 5
  24694472.281 7 129770381.719 7 101119782.922 6  24694468.852 6  24694470.914 6
  20605920.065 9 108284887.415 9  84377832.999 9  20605914.463 9  20605918.647 9
 09  6 30  0 34  0.0000000  0 11G22G 7G 3G 6G11G32G 8G16G14G18G19
  22109439.790 9 116185930.101 9  90534482.152 9  22109434.502 9  22109438.717 9
  24792947.623 7 130287834.938 7 101522987.753 5  24792944.489 5  24792948.334 5
  20322265.063 9 106794280.904 9  83216322.738 9  20322262.226 9  20322263.995 9
  21098817.483 9 110875107.716 9  86396199.028 9  21098814.400 9  21098816.507 9
  22482529.857 9 118146492.972 9  92062195.340 8  22482526.148 8  22482529.222 8
  22937362.847 8 120536657.343 8  93924660.605 7  22937360.456 7  22937361.763 7
  24847056.523 7 130572172.444 7 101744539.556 5  24847054.715 5  24847055.178 5
  23741261.203 8 124761196.838 8  97216518.407 7  23741256.962 7  23741259.940 7
  24684091.799 7 129715774.984 7 101077209.534 5  24684087.569 5  24684089.910 5
  24711399.572 7 129859335.735 7 101189097.730 5  24711395.782 5  24711398.484 5
  20601748.723 9 108262967.527 9  84360752.577 9  20601743.112 9  20601747.454 9
 09  6 30  0 34 30.0000000  0 11G22G 7G 3G 6G11G32G 8G16G14G18G19
  22120297.737 9 116242989.125 9  90578943.738 9  22120292.252 9  22120296.874 9
  24804025.751 7 130346047.587 7 101568348.226 5  24804022.722 5  24804025.593 5
  20327997.852 9 106824406.162 9  83239796.960 9  20327994.783 9  20327996.835 9
  21106298.473 9 110914421.838 9  86426833.410 9  21106295.483 9  21106297.801 9
  22468889.680 9 118074814.586 9  92006342.077 8  22468886.397 8  22468889.161 8
  22917471.350 8 120432126.366 8  93843207.898 7  22917469.334 7  22917470.027 7
  24848675.537 7 130580680.475 7 101751169.208 4  24848674.997 4  24848673.620 4
  23761816.392 8 124869214.833 8  97300688.275 7  23761812.569 7  23761814.708 7
  24671449.854 7 129649345.220 7 101025446.117 5  24671446.750 5  24671449.109 5
  24728368.869 7 129948507.321 7 101258582.054 6  24728364.102 6  24728366.795 6
  20597627.952 9 108241312.099 9  84343878.223 9  20597622.185 9  20597626.467 9
 09  6 30  0 35  0.0000000  0 11G22G 7G 3G 6G11G32G 8G16G14G18G19
  22131241.080 9 116300495.623 9  90623754.001 9  22131235.409 9  22131240.052 9
  24815151.028 7 130404513.765 7 101613906.265 5  24815148.083 5  24815150.303 5
  20333802.808 9 106854911.558 9  83263567.394 9  20333799.674 9  20333801.835 9
  21113839.752 9 110954050.709 9  86457713.049 9  21113836.782 9  21113838.811 9
  22455286.747 9 118003327.443 9  91950637.833 8  22455282.610 8  22455285.404 8
  22897619.568 8 120327804.253 8  93761917.912 7  22897616.815 7  22897618.237 7
  24850394.080 6 130589710.503 6 101758205.615 4  24850393.734 4  24850391.797 4
  23782393.019 8 124977346.477 8  97384946.693 7  23782389.294 7  23782391.961 7
  24658845.772 7 129583110.058 7 100973834.301 5  24658843.116 5  24658844.859 5
  24745377.372 7 130037894.414 7 101328234.305 5  24745373.991 5  24745376.721 5
  20593557.427 9 108219922.283 9  84327210.834 9  20593551.867 9  20593556.097 9
 09  6 30  0 35 30.0000000  0 11G22G 7G 3G 6G11G32G 8G16G14G18G19
  22142268.985 9 116358448.008 9  90668911.709 9  22142263.269 9  22142268.023 9
  24826324.356 7 130463230.324 7 101659659.411 5  24826320.924 5  24826324.133 5
  20339680.049 9 106885797.474 9  83287634.338 9  20339677.071 9  20339679.107 9
  21121440.692 9 110993994.404 9  86488838.005 9  21121437.802 9  21121439.849 9
  22441719.634 9 117932031.999 9  91895082.967 8  22441715.353 8  22441718.663 8
  22877807.683 8 120223693.685 8  93680792.778 7  22877805.129 7  22877806.695 7
  24852210.818 7 130599261.232 7 101765647.754 5  24852210.779 5  24852210.866 5
  23802990.939 8 125085589.326 8  97469291.773 6  23802987.242 6  23802989.724 6
  24646279.430 7 129517072.498 7 100922376.504 5  24646275.943 5  24646277.992 5
  24762428.816 7 130127494.534 7 101398052.524 5  24762424.262 5  24762427.331 5
  20589538.071 9 108198799.216 9  84310751.293 9  20589532.256 9  20589536.640 9
 09  6 30  0 36  0.0000000  0 11G22G 7G 3G 6G11G32G 8G16G14G18G19
  22153381.255 9 116416844.047 9  90714415.115 9  22153375.877 9  22153380.604 9
  24837546.021 7 130522194.525 7 101705605.527 5  24837541.258 5  24837544.320 5
  20345629.798 9 106917063.823 9  83311997.720 9  20345626.916 9  20345628.604 9
  21129101.693 9 111034253.301 9  86520208.570 9  21129098.848 9  21129100.708 9
  22428188.908 9 117860928.223 9  91839677.455 8  22428184.416 8  22428188.361 8
  22858037.046 8 120119797.370 8  93599834.579 7  22858034.186 7  22858035.942 7
  24854127.168 7 130609331.512 7 101773494.782 5  24854126.061 5  24854127.190 5
  23823610.139 8 125193941.001 8  97553721.640 6  23823605.782 6  23823608.814 6
  24633750.805 7 129451235.754 7 100871075.156 5  24633747.637 5  24633749.745 5
  24779518.544 7 130217305.364 7 101468034.960 5  24779515.252 5  24779517.794 5
  20585569.335 9 108177944.282 9  84294500.686 9  20585563.826 9  20585568.208 9
 09  6 30  0 36 30.0000000  0 11G22G 7G 3G 6G11G32G 8G16G14G18G19
  22164577.505 9 116475681.693 9  90760262.635 9  22164572.439 9  22164577.243 9
  24848813.305 7 130581403.428 7 101751742.289 5  24848808.422 5  24848810.990 5
  20351652.006 9 106948710.551 9  83336657.504 9  20351648.936 9  20351650.970 9
  21136822.890 9 111074827.556 9  86551824.871 9  21136820.261 9  21136822.024 9
  22414694.749 9 117790016.679 9  91784421.717 8  22414689.862 8  22414694.075 8
  22838307.172 8 120016117.990 8  93519045.437 7  22838304.861 7  22838306.326 7
  24856143.190 7 130619920.782 7 101781746.117 5  24856139.908 5  24856142.586 5
  23844248.191 8 125302398.985 8  97638234.371 6  23844244.491 6  23844247.663 6
  24621260.613 7 129385602.837 7 100819932.678 5  24621257.880 5  24621261.380 5
  24796648.721 7 130307324.529 7 101538179.702 5  24796644.643 5  24796648.345 5
  20581652.088 9 108157358.407 9  84278459.745 9  20581646.521 9  20581650.843 9
 09  6 30  0 37  0.0000000  0 11G22G 7G 3G 6G11G32G 8G16G14G18G19
  22175857.837 9 116534959.138 9  90806452.857 9  22175852.276 9  22175857.094 9
  24860125.423 7 130640854.468 7 101798067.780 6  24860123.015 6  24860125.775 6
  20357746.702 9 106980737.888 9  83361613.868 9  20357743.705 9  20357745.627 9
  21144603.983 9 111115717.471 9  86583687.130 9  21144601.027 9  21144603.020 9
  22401237.356 9 117719297.690 9  91729315.997 8  22401232.524 8  22401236.903 8
  22818619.601 8 119912658.337 8  93438427.530 7  22818617.482 7  22818618.750 7
  24858255.882 7 130631027.491 7 101790400.718 5  24858252.948 5  24858256.658 5
  23864907.222 7 125410960.737 7  97722827.949 6  23864902.777 6  23864906.643 6
  24608810.456 7 129320176.612 7 100768951.219 5  24608807.437 5  24608810.779 5
  24813818.097 7 130397549.854 7 101608485.156 6  24813814.931 6  24813817.043 6
  20577785.983 9 108137042.768 9  84262629.381 9  20577780.541 9  20577784.743 9
 09  6 30  0 37 30.0000000  0 11G22G 7G 3G 6G11G32G 8G16G14G18G19
  22187221.124 9 116594674.375 9  90852984.209 9  22187215.742 9  22187220.724 9
  24871484.515 7 130700544.142 7 101844579.191 5  24871481.436 5  24871484.045 5
  20363913.781 9 107013146.114 9  83386867.024 9  20363910.828 9  20363912.821 9
  21152445.199 9 111156923.317 9  86615795.573 9  21152442.074 9  21152444.220 9
  22387816.660 9 117648771.653 9  91674360.619 8  22387812.103 8  22387815.956 8
  22798974.280 8 119809421.029 8  93357982.855 7  22798971.854 7  22798973.089 7
  24860467.776 7 130642649.808 7 101799457.068 4  24860464.722 4  24860467.646 4
  23885585.220 7 125519623.801 7  97807500.484 5  23885581.190 5  23885584.835 5
  24596400.760 7 129254960.365 7 100718133.374 5  24596397.207 5  24596401.185 5
  24831026.573 7 130487979.106 7 101678949.491 5  24831023.656 5  24831025.574 5
  20573971.689 9 108116998.512 9  84247010.484 9  20573966.186 9  20573970.312 9
 09  6 30  0 38  0.0000000  0 11G22G 7G 3G 6G11G32G 8G16G14G18G19
  22198667.279 9 116654825.117 9  90899854.917 9  22198662.070 9  22198666.808 9
  24882887.516 7 130760469.624 7 101891274.342 5  24882885.294 5  24882887.427 5
  20370153.534 9 107045935.752 9  83412417.384 9  20370150.482 9  20370152.652 9
  21160346.547 9 111198445.301 9  86648150.368 9  21160343.539 9  21160345.306 9
  22374432.845 9 117578438.488 9  91619555.533 8  22374428.354 8  22374431.650 8
  22779372.106 8 119706408.718 8  93277713.509 7  22779368.949 7  22779370.448 7
  24862777.327 7 130654786.748 7 101808914.428 5  24862774.781 5  24862776.779 5
  23906281.726 7 125628385.660 7  97892250.024 5  23906277.643 5  23906280.762 5
  24584031.335 7 129189956.653 7 100667481.132 5  24584026.805 5  24584030.668 5
  24848273.259 7 130578609.828 7 101749570.826 5  24848269.436 5  24848273.126 5
  20570209.360 9 108097226.653 9  84231603.843 9  20570203.712 9  20570207.980 9
 09  6 30  0 38 30.0000000  0 11G22G 7G 3G 6G11G32G 8G16G14G18G19
  22210196.527 9 116715409.849 9  90947063.803 9  22210190.878 9  22210195.660 9
  24894335.616 7 130820627.983 7 101938151.035 5  24894333.172 5  24894334.977 5
  20376465.705 9 107079106.128 9  83438264.424 9  20376462.614 9  20376464.809 9
  21168307.952 9 111240283.610 9  86680751.642 9  21168304.685 9  21168306.963 9
  22361085.579 9 117508298.439 9  91564900.928 8  22361081.263 8  22361084.476 8
  22759812.291 8 119603623.996 8  93197621.477 7  22759809.524 7  22759811.064 7
  24865184.467 7 130667437.332 7 101818772.060 5  24865182.718 5  24865183.174 5
  23926996.305 7 125737243.752 7  97977074.539 5  23926993.043 5  23926995.414 5
  24571702.491 7 129125168.844 7 100616997.166 6  24571698.030 6  24571702.023 6
  24865557.746 7 130669439.508 7 101820347.111 4  24865552.866 4  24865556.955 4
  20566498.975 9 108077728.195 9  84216410.240 9  20566493.217 9  20566497.459 9
 09  6 30  0 39  0.0000000  0 11G22G 7G 3G 6G11G32G 8G16G14G18G19
  22221807.356 9 116776426.088 9  90994608.925 9  22221802.160 9  22221806.311 9
  24905827.248 7 130881016.585 7 101985207.091 5  24905823.986 5  24905827.324 5
  20382850.233 9 107112657.769 9  83464408.550 9  20382847.366 9  20382849.232 9
  21176329.727 9 111282438.447 9  86713599.559 9  21176326.718 9  21176328.617 9
  22347774.941 9 117438352.025 9  91510397.246 8  22347771.204 8  22347774.006 8
  22740297.032 8 119501069.727 8  93117709.040 7  22740294.526 7  22740295.425 7
  24867689.275 7 130680600.019 7 101829028.733 5  24867686.710 5  24867687.900 5
  23947728.980 7 125846195.519 7  98061971.997 5  23947725.653 5  23947729.090 5
  24559414.343 7 129060599.623 7 100566683.545 5  24559411.645 5  24559415.199 5
  24882878.888 6 130760466.382 6
  20562840.843 9 108058504.600 9  84201430.818 9  20562835.232 9  20562839.302 9
 09  6 30  0 39 30.0000000  0 11G22G 7G 3G 6G11G32G 8G16G14G18G19
  22233500.228 9 116837871.728 9  91042488.651 9  22233494.839 9  22233499.255 9
  24917362.806 7 130941632.204 7 102032440.071 5  24917357.080 5  24917361.129 5
  20389307.433 9 107146590.802 9  83490849.870 9  20389304.484 9  20389306.432 9
  21184411.767 9 111324910.094 9  86746694.342 9  21184409.126 9  21184410.757 9
  22334501.523 9 117368599.637 9  91456044.742 8  22334497.737 8  22334500.800 8
  22720826.113 8 119398748.511 8  93037978.227 7  22720823.706 7  22720824.800 7
  24870292.415 7 130694273.417 7 101839683.344 5  24870288.331 5  24870290.861 5
  23968479.509 7 125955238.727 7  98146940.719 5  23968475.240 5  23968478.388 5
  24547170.139 7 128996252.168 7 100516542.693 6  24547167.059 6  24547169.084 6
  24900238.393 6 130851687.713 6
  20559235.141 9 108039556.848 9  84186666.334 9  20559229.418 9  20559233.944 9
 09  6 30  0 40  0.0000000  0 11G22G 7G 3G 6G11G32G 8G16G14G18G19
  22245274.140 9 116899744.668 9  91090701.327 9  22245268.912 9  22245273.524 9
  24928939.736 6 131002471.761 6 102079847.507 5  24928935.158 5  24928937.863 5
  20395837.298 9 107180905.161 9  83517588.332 9  20395834.248 9  20395836.083 9
  21192554.180 9 111367698.622 9  86780036.048 9  21192551.594 9  21192553.245 9
  22321265.500 9 117299041.482 9  91401843.594 8  22321261.127 8  22321264.641 8
  22701399.640 8 119296662.948 8  92958431.007 7  22701397.060 7  22701398.899 7
  24872990.209 7 130708456.264 7 101850734.945 5  24872986.688 5  24872988.556 5
  23989246.040 6 126064370.518 6  98231978.509 5  23989242.600 5  23989244.705 5
  24534968.043 7 128932129.478 7 100466577.009 6  24534965.091 6  24534966.589 6
  24917634.271 6 130943101.371 6
  20555682.221 9 108020885.869 9  84172117.518 9  20555676.679 9  20555680.841 9
 09  6 30  0 40 30.0000000  0 11G22G 7G 3G 6G11G32G 8G16G14G18G19
  22257128.982 9 116962042.925 9  91139245.423 9  22257123.750 9  22257128.627 9
  24940558.020 7 131063532.405 7 102127427.196 5  24940554.585 5  24940556.933 5
  20402439.515 9 107215600.872 9  83544623.954 9  20402436.639 9  20402438.684 9
  21200757.109 9 111410804.354 9  86813624.929 9  21200754.008 9  21200756.180 9
  22308065.675 9 117229677.554 9  91347793.797 8  22308061.494 8  22308065.237 8
  22682019.011 8 119194815.760 8  92879069.549 8  22682016.731 8  22682017.931 8
  24875785.416 7 130723147.341 7 101862182.554 5  24875784.007 5  24875784.242 5
  24010030.225 6 126173589.008 6  98317083.736 5  24010027.451 5  24010027.285 5
  24522808.923 7 128868234.540 7 100416788.780 5  24522806.373 5  24522808.716 5
  24935065.703 6 131034705.258 6
  20552182.243 9 108002493.134 9  84157785.518 9  20552176.479 9  20552180.992 9
 09  6 30  0 41  0.0000000  0 11G22G 7G 3G 6G11G32G 8G16G14G18G19
  22269064.815 9 117024764.450 9  91188119.341 9  22269059.438 9  22269063.761 9
  24952219.795 7 131124811.152 7 102175176.845 5  24952216.383 5  24952216.968 5
  20409114.735 9 107250678.135 9  83571956.889 9  20409111.485 9  20409113.622 9
  21209020.243 9 111454227.382 9  86847461.059 9  21209017.303 9  21209019.387 9
  22294903.232 9 117160508.372 9  91293895.744 8  22294898.826 8  22294902.897 8
  22662683.912 8 119093209.685 8  92799895.977 8  22662681.672 8  22662683.110 8
  24878677.865 7 130738345.350 7 101874025.207 5  24878675.327 5  24878676.415 5
  24030829.312 6 126282891.262 6  98402254.381 4  24030825.669 4  24030828.242 4
  24510694.064 7 128804570.100 7 100367180.095 5  24510691.712 5  24510693.857 5
  24952532.561 5 131126496.702 5
  20548735.196 9 107984379.720 9  84143671.173 9  20548729.613 9  20548734.139 9
 09  6 30  0 41 30.0000000  0 12G22G 7G 3G 6G11G32G 8G16G14G18G19G28
  22281080.404 9 117087907.309 9  91237321.574 9  22281075.114 9  22281079.520 9
  24963921.296 7 131186304.931 7 102223094.045 5  24963918.796 5  24963920.484 5
  20415862.424 9 107286137.291 9  83599587.400 9  20415859.229 9  20415861.268 9
  21217343.691 9 111497967.893 9  86881544.578 9  21217340.851 9  21217342.813 9
  22281778.143 9 117091534.317 9  91240149.755 8  22281773.717 8  22281777.069 8
  22643395.235 8 118991847.239 8  92720912.227 8  22643393.019 8  22643394.249 8
  24881665.668 7 130754048.317 7 101886261.265 4  24881664.149 4  24881664.753 4
  24051644.499 6 126392274.928 6
  24498623.872 7 128741139.329 7 100317753.523 4  24498620.216 4  24498622.740 4
  24970035.485 5 131218473.635 5
  20545341.594 9 107966546.292 9  84129775.003 9  20545335.986 9  20545340.342 9
  26060655.819 5 136949674.68015
 09  6 30  0 42  0.0000000  0 11G22G 7G 3G 6G11G32G 8G16G14G19G28
  22293175.956 9 117151469.171 9  91286850.293 9  22293170.099 9  22293175.052 9
  24975662.693 7 131248011.027 7 102271176.702 5  24975660.596 5  24975663.711 5
  20422682.489 9 107321977.988 9  83627515.216 9  20422679.502 9  20422681.578 9
  21225727.845 9 111542026.039 9  86915875.598 9  21225724.974 9  21225726.835 9
  22268689.694 9 117022755.347 9  91186555.780 8  22268685.751 8  22268688.862 8
  22624153.536 8 118890731.180 8  92642120.498 8  22624151.636 8  22624152.232 8
  24884750.385 7 130770254.673 7 101898889.554 5  24884748.349 5  24884750.020 5
  24072475.209 6 126501737.503 6
  24486598.810 7 128677945.161 7 100268511.353 5  24486594.558 5  24486596.609 5
  20542001.601 9 107948994.279 9  84116098.115 9  20541996.030 9  20542000.126 9
  26041554.586 6 136849296.793 6
 09  6 30  0 42 30.0000000  0 11G22G 7G 3G 6G11G32G 8G16G14G19G28
  22305350.168 9 117215447.219 9  91336703.314 9  22305344.978 9  22305350.032 9
  24987446.305 7 131309926.238 7 102319422.285 4  24987442.649 4  24987445.918 4
  20429575.355 9 107358200.090 9  83655740.226 9  20429572.301 9  20429574.340 9
  21234172.238 9 111586402.115 9  86950454.351 9  21234169.486 9  21234171.331 9
  22255638.747 9 116954172.174 9  91133114.386 8  22255634.830 8  22255638.058 8
  22604959.209 8 118789864.021 8  92563522.719 8  22604957.376 8  22604958.025 8
  24887929.899 7 130786963.200 7 101911909.178 5  24887927.699 5  24887929.967 5
  24093319.983 5 126611276.285 5
  24474618.420 7 128614990.529 7 100219455.848 5  24474614.539 5  24474617.632 5
  20538715.401 9 107931724.774 9  84102641.365 9  20538709.759 9  20538714.051 9
  26022474.440 6 136749032.446 6
 09  6 30  0 43  0.0000000  0 11G22G 7G 3G 6G11G32G 8G16G14G19G28
  22317603.895 9 117279839.723 9  91386879.284 9  22317598.072 9  22317603.101 9
  24999266.704 7 131372047.679 7 102367828.592 6  24999264.241 6  24999267.244 6
  20436540.853 9 107394803.676 9  83684262.496 9  20436537.851 9  20436539.702 9
  21242677.307 9 111631096.128 9  86985280.849 9  21242674.636 9  21242676.370 9
  22242624.807 9 116885784.990 9  91079825.703 8  22242620.928 8  22242624.641 8
  22585812.773 8 118689248.444 8  92485120.986 8  22585810.840 8  22585811.467 8
  24891204.897 7 130804172.491 7 101925319.024 5  24891201.702 5  24891204.153 5
  24114176.487 5
  24462684.508 7 128552278.546 7 100170589.406 4  24462680.683 4  24462684.311 4
  20535483.177 9 107914738.902 9  84089405.624 9  20535477.446 9  20535481.561 9
  26003416.685 6 136648884.122 6
 09  6 30  0 43 30.0000000  0 11G22G 7G 3G 6G11G32G 8G16G14G19G28
  22329935.916 9 117344645.483 9  91437377.284 9  22329930.328 9  22329935.109 9
  25011126.957 7 131434372.148 7 102416393.023 5  25011124.148 5  25011127.045 5
  20443578.962 9 107431789.094 9  83713082.294 9  20443575.897 9  20443577.801 9
  21251242.810 9 111676108.175 9  87020355.170 9  21251240.053 9  21251241.895 9
  22229648.519 9 116817593.743 9  91026689.709 8  22229644.447 8  22229648.101 8
  22566714.490 8 118588887.137 8  92406917.366 8  22566712.345 8  22566713.438 8
  24894574.308 7 130821881.078 7 101939117.923 4  24894571.360 4  24894573.533 4
  24135047.377 5
  24450798.199 7 128489811.865 7 100121914.088 5  24450794.572 5  24450797.064 5
  20532305.100 9 107898038.073 9  84076391.997 9  20532299.397 9  20532303.673 9
  25984382.923 6 136548853.786 6
 09  6 30  0 44  0.0000000  0 11G22G 7G 3G 6G11G32G 8G16G14G19G28
  22342346.023 9 117409861.085 9  91488194.628 9  22342340.492 9  22342345.174 9
  25023025.348 7 131496896.930 7 102465113.622 6  25023022.675 6  25023024.951 6
  20450689.683 9 107469156.083 9  83742199.420 9  20450686.768 9  20450688.666 9
  21259868.779 9 111721438.445 9  87055677.462 9  21259865.875 9  21259867.835 9
  22216709.703 9 116749598.909 9  90973706.749 8  22216705.046 8  22216708.976 8
  22547665.435 8 118488782.711 8  92328913.915 8  22547663.042 8  22547664.319 8
  24898038.441 7 130840087.213 7 101953304.537 5  24898036.307 5  24898038.179 5
  24155934.491 4
  24438957.072 7 128427593.646 7 100073432.418 5  24438954.935 5  24438957.078 5
  20529181.395 9 107881623.015 9  84063601.039 9  20529175.815 9  20529179.945 9
  25965370.143 7 136448943.854 7
 09  6 30  0 44 30.0000000  0 10G22G 7G 3G 6G11G32G 8G14G19G28
  22354834.002 9 117475485.129 9  91539330.249 9  22354828.218 9  22354833.369 9
  25034961.064 7 131559618.954 7 102513987.962 5  25034958.276 5  25034961.668 5
  20457872.872 9 107506904.608 9  83771613.851 9  20457870.011 9  20457872.149 9
  21268555.618 9 111767087.100 9  87091247.841 9  21268552.448 9  21268554.482 9
  22203807.937 9 116681800.763 9  90920877.055 8  22203803.531 8  22203807.066 8
  22528665.470 8 118388937.788 8  92251112.667 8  22528662.832 8  22528664.540 8
  24901597.550 7 130858789.670 7 101967877.869 5  24901594.893 5  24901597.300 5
  24427166.088 7 128365626.812 7 100025146.613 4  24427161.384 4  24427164.282 4
  20526112.249 9 107865494.755 9  84051033.557 9  20526106.636 9  20526110.911 9
  25946380.873 6 136349156.481 6
 09  6 30  0 45  0.0000000  0 10G22G 7G 3G 6G11G32G 8G14G19G28
  22367399.162 9 117541515.513 9  91590782.496 9  22367393.682 9  22367398.339 9
  25046933.873 7 131622534.989 7 102563013.447 5  25046930.487 5  25046932.950 5
  20465128.909 9 107545034.996 9  83801325.838 9  20465125.926 9  20465127.831 9
  21277302.860 9 111813054.244 9  87127066.388 9  21277299.890 9  21277301.678 9
  22190943.775 9 116614199.568 9  90868200.830 8  22190939.420 8  22190942.932 8
  22509715.429 8 118289354.929 8  92173515.623 8  22509712.780 8  22509714.527 8
  24905250.606 7 130877986.840 7 101982836.697 5  24905248.960 5  24905250.127 5
  24415423.220 7 128303914.352 7  99977058.966 5  24415417.525 5  24415420.629 5
  20523098.009 9 107849654.902 9  84038690.818 9  20523092.436 9  20523096.601 9
  25927416.951 7 136249494.442 7
 09  6 30  0 45 30.0000000  0 10G22G 7G 3G 6G11G32G 8G14G19G28
  22380040.903 9 117607949.272 9  91642549.070 9  22380035.565 9  22380040.227 9
  25058943.154 7 131685642.205 7 102612187.895 5  25058938.313 5  25058941.546 5
  20472457.555 9 107583546.673 9  83831334.932 9  20472454.337 9  20472456.473 9
  21286110.531 9 111859339.983 9  87163133.199 9  21286107.687 9  21286109.728 9
  22178117.073 9 116546795.461 9  90815678.181 8  22178112.882 8  22178116.257 8
  22490815.758 8 118190036.772 8  92096124.826 8  22490813.045 8  22490814.611 8
  24908997.393 7 130897676.803 7 101998179.527 5  24908995.992 5  24908996.901 5
  24403728.179 7 128242458.975 7  99929171.634 5  24403724.327 5  24403726.424 5
  20520138.714 9 107834104.105 9  84026573.317 9  20520133.012 9  20520137.417 9
  25908475.900 7 136149959.739 7
 09  6 30  0 46  0.0000000  0 10G22G 7G 3G 6G11G32G 8G14G19G28
  22392759.379 9 117674784.782 9  91694628.684 9  22392754.186 9  22392758.553 9
  25070985.355 6 131748937.798 6 102661509.137 4  25070982.255 4  25070985.827 4
  20479858.642 9 107622439.904 9  83861641.341 9  20479855.709 9  20479857.550 9
  21294979.253 9 111905944.339 9  87199448.281 9  21294976.171 9  21294978.294 9
  22165328.474 9 116479588.640 9  90763309.242 8  22165324.033 8  22165327.276 8
  22471967.169 9 118090986.021 9  92018942.432 8  22471964.952 8  22471966.146 8
  24912838.021 7 130917858.063 7 102013905.144 5  24912836.277 5  24912837.773 5
  24392082.630 7 128181263.829 7  99881487.090 6  24392079.840 6  24392081.876 6
  20517234.941 9 107818843.765 9  84014682.141 9  20517228.950 9  20517233.301 9
  25889559.534 7 136050554.929 7
 09  6 30  0 46 30.0000000  0 11G22G 7G 3G 6G11G32G 8G14G20G19G28
  22405553.807 9 117742019.580 9  91747019.424 9  22405548.556 9  22405553.058 9
  25083066.905 6 131812418.554 6 102710974.632 4  25083062.950 4  25083064.431 4
  20487332.211 9 107661714.506 9  83892244.920 9  20487329.343 9  20487331.010 9
  21303908.199 9 111952867.538 9  87236011.806 9  21303905.399 9  21303907.055 9
  22152576.854 9 116412579.521 9  90711094.351 8  22152572.814 8  22152576.275 8
  22453169.712 8 117992205.122 8  91941970.318 8  22453167.439 8  22453168.803 8
  24916771.986 7 130938529.045 7 102030012.402 5  24916769.717 5  24916772.376 5
  24380487.498 7 128120331.848 7  99834007.616 5  24380485.502 5  24380487.476 5
  24947681.487 6 131100946.73516
  20514386.464 9 107803874.932 9  84003018.110 9  20514380.644 9  20514384.963 9
  25870667.743 7 135951282.103 7
 09  6 30  0 47  0.0000000  0 11G22G 7G 3G 6G11G32G 8G14G20G19G28
  22418423.728 9 117809651.856 9  91799719.893 9  22418418.398 9  22418422.995 9
  25095182.113 7 131876081.597 7 102760582.122 5  25095178.357 5  25095179.322 5
  20494878.400 9 107701370.419 9  83923145.626 9  20494875.538 9  20494877.303 9
  21312898.180 9 112000109.553 9  87272823.765 9  21312895.480 9  21312897.441 9
  22139863.002 9 116345768.300 9  90659033.679 8  22139859.168 8  22139862.542 8
  22434424.215 9 117893696.781 9  91865210.588 8  22434421.992 8  22434423.211 8
  24920798.539 7 130959687.926 7 102046499.790 4  24920796.057 4  24920797.634 4
  24368943.306 7 128059666.006 7  99786735.571 5  24368940.491 5  24368943.206 5
  24926020.528 7 130987118.025 7
  20511593.795 9 107789198.796 9  83991582.151 9  20511587.975 9  20511592.181 9
  25851802.605 7 135852143.669 7
 09  6 30  0 47 30.0000000  0 11G22G 7G 3G 6G11G32G 8G14G20G19G28
  22431368.727 9 117877679.374 9  91852728.337 9  22431363.761 9  22431368.151 9
  25107329.355 7 131939923.759 7 102810329.273 5  25107327.145 5  25107328.501 5
  20502497.323 9 107741407.721 9  83954343.525 9  20502494.496 9  20502496.647 9
  21321948.860 9 112047670.547 9  87309884.278 9  21321945.807 9  21321947.821 9
  22127187.310 9 116279155.432 9  90607127.545 9  22127183.104 9  22127186.567 9
  22415731.189 9 117795463.565 9  91788665.218 8  22415728.493 8  22415730.161 8
  24924917.688 7 130981332.964 7 102063366.026 5  24924916.804 5  24924915.973 5
  24357450.911 7 127999268.916 7  99739672.920 6  24357448.260 6  24357449.721 6
  24904365.158 7 130873317.831 7
  20508856.791 9 107774816.220 9  83980374.945 9  20508851.085 9  20508855.059 9
  25832963.143 7 135753142.053 7
 09  6 30  0 48  0.0000000  0 11G22G 7G 3G 6G11G32G 8G14G20G19G28
  22444388.750 9 117946099.336 9  91906042.589 9  22444383.484 9  22444387.840 9
  25119513.486 6 132003942.139 6 102860213.718 4  25119509.353 4  25119510.585 4
  20510188.873 9 107781826.561 9  83985838.728 9  20510185.772 9  20510187.876 9
  21331059.987 9 112095550.441 9  87347193.285 9  21331057.053 9  21331059.387 9
  22114548.697 9 116212741.140 9  90555376.142 9  22114544.733 9  22114548.487 9
  22397090.779 9 117697508.006 9  91712336.178 8  22397088.072 8  22397089.634 8
  24929128.390 7 131003462.416 7 102080609.718 5  24929127.955 5  24929126.577 5
  24346007.603 7 127939143.598 7  99692822.000 6  24346005.873 6  24346007.992 6
  24882714.720 7 130759548.246 7
  20506175.909 9 107760728.574 9  83969397.558 9  20506170.418 9  20506174.419 9
  25814150.396 7 135654279.683 7
 09  6 30  0 48 30.0000000  0 11G22G 7G 3G 6G11G32G 8G14G20G19G28
  22457482.810 9 118014909.541 9  91959660.921 9  22457477.514 9  22457482.351 9
  25131727.400 6 132068133.530 6 102910232.963 5  25131725.462 5  25131726.949 5
  20517952.755 9 107822626.467 9  84017630.862 9  20517949.975 9  20517951.915 9
  21340231.901 9 112143749.420 9  87384750.930 9  21340228.921 9  21340231.324 9
  22101948.356 9 116146525.421 9  90503779.475 8  22101944.169 8  22101947.488 8
  22378503.834 9 117599832.714 9  91636225.541 8  22378500.778 8  22378502.836 8
  24933431.776 7 131026074.480 7 102098229.508 5  24933429.911 5  24933429.373 5
  24334618.979 7 127879293.193 7  99646185.280 6  24334616.554 6  24334618.871 6
  24861071.306 7 130645811.756 7 101801914.60514  24861069.077 4  24861071.147 4
  20503551.409 9 107746936.790 9  83958650.713 9  20503545.813 9  20503549.917 9
  25795364.123 7 135555558.767 7
 09  6 30  0 49  0.0000000  0 11G22G 7G 3G 6G11G32G 8G14G20G19G28
  22470650.998 9 118084108.305 9  92013582.044 9  22470645.287 9  22470650.097 9
  25143975.653 7 132132495.104 7 102960384.782 5  25143972.472 5  25143974.752 5
  20525789.236 9 107863807.270 9  84049719.801 9  20525786.381 9  20525788.060 9
  21349464.740 9 112192267.468 9  87422557.199 9  21349461.426 9  21349463.811 9
  22089385.888 9 116080508.766 9  90452337.938 8  22089381.215 8  22089384.689 8
  22359970.481 9 117502440.287 9  91560335.338 8  22359967.624 8  22359969.560 8
  24937825.825 7 131049167.392 7 102116223.897 5  24937823.220 5  24937823.715 5
  24323282.095 7 127819720.269 7  99599764.815 6  24323280.094 6  24323282.916 6
  24839434.775 7 130532110.628 7 101713316.357 5  24839430.756 5  24839436.342 5
  20500983.570 9 107733442.343 9  83948135.557 9  20500977.808 9  20500982.141 9
  25776606.299 7 135456981.918 7
 09  6 30  0 49 30.0000000  0 11G22G 7G 3G 6G11G32G 8G14G20G19G28
  22483892.673 9 118153693.745 9  92067804.462 9  22483887.003 9  22483891.707 9
  25156255.718 7 132197023.847 7 103010666.802 5  25156251.732 5  25156255.166 5
  20533698.323 9 107905369.263 9  84082105.778 9  20533695.221 9  20533697.303 9
  21358757.930 9 112241104.673 9  87460612.161 9  21358755.161 9  21358757.282 9
  22076861.070 9 116014691.406 9  90401051.696 8  22076856.442 8  22076859.916 8
  22341491.841 9 117405333.274 9  91484667.532 8  22341488.970 8  22341490.668 8
  24942311.211 7 131072739.573 7 102134591.780 5  24942309.168 5  24942308.628 5
  24311999.679 7 127760427.827 7  99553562.932 6  24311996.822 6  24311999.978 6
  24817805.488 7 130418446.928 7 101624747.123 5  24817802.469 5  24817804.820 5
  20498472.474 9 107720246.154 9  83937852.811 9  20498466.743 9  20498470.945 9
  25757875.097 7 135358551.496 7
 09  6 30  0 50  0.0000000  0 11G22G 7G 3G 6G11G32G 8G14G20G19G28
  22497207.101 9 118223662.753 9  92122325.761 9  22497201.666 9  22497206.503 9
  25168566.299 7 132261716.666 7 103061076.763 5  25168563.120 5  25168565.940 5
  20541679.556 9 107947311.908 9  84114788.362 9  20541676.651 9  20541678.757 9
  21368112.234 9 112290261.087 9  87498915.850 9  21368109.509 9  21368111.140 9
  22064374.663 9 115949073.681 9  90349921.024 8  22064370.169 8  22064373.346 8
  22323067.658 9 117308514.215 9  91409224.093 8  22323065.053 8  22323066.645 8
  24946887.981 7 131096789.269 7 102153331.824 5  24946884.661 5  24946885.722 5
  24300771.451 7 127701418.664 7  99507581.788 6  24300768.027 6  24300770.713 6
  24796184.702 6 130304822.707 6
  20496018.172 9 107707349.029 9  83927803.105 9  20496012.315 9  20496016.714 9
  25739173.318 7 135260269.883 7
 09  6 30  0 50 30.0000000  0 11G22G 7G 3G 6G11G32G 8G14G20G19G28
  22510594.574 9 118294013.199 9  92177144.284 9  22510589.057 9  22510593.820 9
  25180907.784 7 132326570.950 7 103111612.488 6  25180904.723 6  25180907.104 6
  20549733.358 9 107989635.553 9  84147767.827 9  20549730.567 9  20549732.305 9
  21377526.926 9 112339736.661 9  87537468.234 9  21377524.450 9  21377526.086 9
  22051926.076 9 115883655.618 9  90298945.930 9  22051921.276 9  22051925.330 9
  22304698.898 8 117211985.643 8  91334007.032 8  22304696.503 8  22304697.523 8
  24951556.035 7 131121314.636 7 102172442.433 5  24951551.957 5  24951554.829 5
  24289597.485 7 127642695.776 7  99461823.688 6  24289593.860 6  24289596.200 6
  24774569.746 6 130191240.143 6
  20493620.805 9 107694752.137 9  83917987.339 9  20493615.535 9  20493619.467 9
  25720498.879 7 135162139.390 7
 09  6 30  0 51  0.0000000  0 11G22G 7G 3G 6G11G32G 8G14G20G19G28
  22524053.969 9 118364743.043 9  92232258.445 9  22524048.506 9  22524053.434 9
  25193279.215 7 132391583.203 7 103162271.322 5  25193276.200 5  25193278.112 5
  20557859.865 9 108032339.682 9  84181043.769 9  20557856.835 9  20557858.770 9
  21387002.501 9 112389531.555 9  87576269.444 9  21386999.883 9  21387001.386 9
  22039515.574 9 115818437.579 9  90248126.691 9  22039511.134 9  22039515.118 9
  22286386.163 9 117115750.119 9  91259018.355 8  22286383.501 8  22286384.437 8
  24956311.721 7 131146313.744 7 102191922.247 4  24956309.495 4  24956311.472 4
  24278477.563 7 127584262.302 7  99416291.108 6  24278473.594 6  24278477.007 6
  24752964.800 7 130077701.562 7
  20491281.319 9 107682457.066 9  83908406.765 9  20491275.649 9  20491279.826 9
  25701854.832 7 135064162.630 7
 09  6 30  0 51 30.0000000  0 11G22G 7G 3G 6G11G32G 8G14G20G19G28
  22537585.146 9 118435849.176 9  92287665.821 9  22537579.602 9  22537584.552 9
  25205680.104 7 132456750.751 7 103213051.162 5  25205676.087 5  25205678.286 5
  20566058.588 9 108075424.326 9  84214616.218 9  20566055.887 9  20566057.683 9
  21396538.930 9 112439645.537 9  87615319.295 9  21396536.188 9  21396538.122 9
  22027142.921 9 115753419.906 9  90197463.584 9  22027139.019 9  22027142.527 9
  22268129.109 9 117019810.125 9  91184259.937 8  22268126.322 8  22268127.939 8
  24961159.379 7 131171784.816 7 102211769.855 4  24961156.502 4  24961158.870 4
  24267413.787 7 127526120.793 7  99370986.073 6  24267409.637 6  24267412.337 6
  24731367.646 7 129964209.084 7
  20488999.254 9 107670464.580 9  83899061.965 9  20488993.673 9  20488997.730 9
  25683240.338 7 134966342.109 7
 09  6 30  0 52  0.0000000  0 11G22G 7G 3G 6G11G32G 8G14G20G19G28
  22551187.516 9 118507330.554 9  92343365.596 9  22551182.471 9  22551186.736 9
  25218109.731 6 132522070.329 6 103263949.437 5  25218106.335 5  25218108.460 5
  20574329.774 9 108118889.243 9  84248484.990 9  20574326.925 9  20574328.792 9
  21406136.223 9 112490078.797 9  87654617.943 9  21406133.228 9  21406135.533 9
  22014808.411 9 115688602.657 9  90146956.644 9  22014804.452 9  22014807.826 9
  22249929.314 9 116924168.274 9  91109733.845 8  22249926.824 8  22249928.018 8
  24966095.551 7 131197725.949 7 102231983.806 4  24966092.557 4  24966094.640 4
  24256405.275 7 127468273.773 7  99325910.509 6  24256401.679 6  24256403.735 6
  24709779.662 7 129850764.925 7
  20486775.112 9 107658775.758 9  83889953.788 9  20486769.312 9  20486773.585 9
  25664654.523 6 134868679.974 6
 09  6 30  0 52 30.0000000  0 11G22G 7G 3G 6G11G32G 8G14G20G19G28
  22564861.084 9 118579184.575 9  92399355.730 9  22564855.906 9  22564860.177 9
  25230567.331 7 132587538.804 7 103314963.759 5  25230565.334 5  25230566.633 5
  20582673.109 9 108162734.402 9  84282650.052 9  20582669.969 9  20582672.244 9
  21415793.930 9 112540831.129 9  87694165.210 9  21415791.122 9  21415793.222 9
  22002512.573 9 115623986.343 9  90096606.279 9  22002508.068 9  22002511.944 9
  22231786.191 9 116828827.073 9  91035442.058 8  22231784.135 8  22231785.081 8
  24971121.985 7 131224135.275 7 102252562.531 4  24971118.735 4  24971119.414 4
  24245454.166 7 127410724.277 7  99281066.768 6  24245451.000 6  24245452.764 6
  24688201.647 7 129737371.327 7
  20484608.677 9 107647392.112 9  83881083.417 9  20484603.115 9  20484607.529 9
  25646101.975 6 134771178.567 6
 09  6 30  0 53  0.0000000  0 11G22G 7G 3G 6G11G32G 8G14G20G19G28
  22578604.796 9 118651408.819 9  92455634.364 9  22578599.678 9  22578604.038 9
  25243053.634 7 132653153.299 7 103366091.832 5  25243052.067 5  25243053.753 5
  20591088.990 9 108206959.742 9  84317111.355 9  20591085.859 9  20591087.849 9
  21425512.402 9 112591902.717 9  87733961.245 9  21425509.672 9  21425511.743 9
  21990254.582 9 115559571.225 9  90046412.675 9  21990250.078 9  21990254.079 9
  22213701.161 9 116733788.975 9  90961386.457 8  22213698.760 8  22213699.988 8
  24976235.034 7 131251010.876 7 102273504.608 5  24976233.281 5  24976234.352 5
  24234560.468 7 127353475.568 7  99236457.373 6  24234556.883 6  24234559.461 6
  24666633.360 7 129624030.436 7
  20482500.751 9 107636314.057 9  83872451.167 9  20482495.091 9  20482499.394 9
  25627579.504 6 134673840.521 6
 09  6 30  0 53 30.0000000  0 11G22G 7G 3G 6G11G32G 8G14G20G19G28
  22592418.496 9 118724000.606 9  92512199.399 9  22592413.391 9  22592417.953 9
  25255567.600 6 132718910.874 6 103417331.496 5  25255564.817 5  25255566.727 5
  20599577.021 9 108251564.649 9  84351868.422 9  20599573.845 9  20599576.060 9
  21435292.020 9 112643293.369 9  87774005.906 9  21435289.025 9  21435290.956 9
  21978035.133 9 115495357.223 9  89996375.777 9  21978030.500 9  21978034.188 9
  22195674.273 9 116639056.481 9  90887568.962 8  22195671.470 8  22195672.901 8
  24981438.299 7 131278350.838 7 102294808.497 5  24981436.432 5  24981436.698 5
  24223723.473 7 127296529.949 7  99192084.152 6  24223720.147 6  24223723.319 6
  24645075.933 7 129510744.339 7
  20480450.952 9 107625543.140 9  83864058.243 9  20480445.122 9  20480449.576 9
  25609086.511 6 134576668.121 6
 09  6 30  0 54  0.0000000  0 11G22G 7G 3G 6G11G32G 8G14G20G19G28
  22606301.778 9 118796958.088 9  92569049.400 9  22606296.357 9  22606301.389 9
  25268106.433 6 132784808.580 6                                  25268107.005
  20608137.049 9 108296548.867 9  84386921.061 9  20608134.408 9  20608136.150 9
  21445131.988 9 112695003.215 9  87814299.288 9  21445128.966 9  21445131.049 9
  21965854.245 9 115431344.903 9  89946496.051 9  21965850.088 9  21965853.207 9
  22177705.504 9 116544632.123 9  90813991.617 9  22177703.581 9  22177704.566 9
  24986728.117 7 131306153.220 7 102316472.692 5  24986726.821 5  24986726.960 5
  24212945.526 7 127239890.527 7  99147949.548 6  24212941.482 6  24212944.985 6
  24623528.679 7 129397515.457 7
  20478459.981 9 107615080.319 9  83855905.394 9  20478454.220 9  20478458.555 9
  25590629.171 6 134479663.996 6
 09  6 30  0 54 30.0000000  0 11G22G 7G 3G 6G11G32G 8G14G20G19G28
  22620254.189 9 118870278.755 9  92626182.397 9  22620248.867 9  22620253.860 9
  25280672.322 6 132850843.251 6 103520135.800 5  25280669.266 5  25280673.349 5
  20616769.337 9 108341912.189 9  84422269.102 9  20616766.373 9  20616768.403 9
  21455032.785 9 112747032.237 9  87854841.379 9  21455029.891 9  21455031.784 9
  21953711.384 9 115367534.696 9  89896773.832 9  21953707.401 9  21953710.585 9
  22159796.367 9 116450518.311 9  90740656.234 9  22159793.733 9  22159795.255 9
  24992107.344 7 131334415.751 7 102338495.495 5  24992104.507 5  24992105.333 5
  24202226.239 7 127183560.129 7  99104055.729 6  24202222.602 6  24202225.786 6
  24601993.857 7 129284345.582 7
  20476527.762 9 107604926.673 9  83847993.469 9  20476522.147 9  20476526.348 9
  25572201.002 7 134382830.753 7
 09  6 30  0 55  0.0000000  0 11G22G 7G 3G 6G11G32G 8G14G20G19G28
  22634275.312 9 118943960.336 9  92683596.612 8  22634270.001 8  22634274.757 8
  25293264.475 7 132917012.002 7 103571695.908 5  25293261.924 5  25293264.950 5
  20625474.211 9 108387655.106 9  84457912.931 9  20625471.075 9  20625473.036 9
  21464994.155 9 112799380.168 9  87895631.969 9  21464991.557 9  21464993.330 9
  21941606.938 9 115303926.268 9  89847208.836 9  21941603.048 9  21941606.157 9
  22141946.757 9 116356717.600 9  90667564.804 9  22141943.917 9  22141945.452 9
  24997571.524 7 131363136.284 7 102360875.207 5  24997570.232 5  24997570.681 5
  24191566.320 7 127127541.544 7  99060404.872 6  24191562.496 6  24191565.632 6
  24580469.853 7 129171237.080 7
  20474654.600 9 107595083.538 9  83840323.491 9  20474649.124 9  20474653.154 9
  25553807.971 7 134286170.566 7
 09  6 30  0 55 30.0000000  0 11G22G 7G 3G 6G11G32G 8G14G20G19G28
  22648364.535 9 119018000.492 9  92741290.252 8  22648359.417 8  22648364.086 8
  25305881.046 7 132983311.725 7 103623358.003 4  25305879.013 4  25305881.479 4
  20634250.954 9 108433776.968 9  84493852.044 9  20634247.812 9  20634249.938 9
  21475016.509 9 112852047.056 9  87936671.100 9  21475013.947 9  21475015.694 9
  21929541.164 9 115240520.136 9  89797801.476 9  21929537.178 9  21929540.333 9
  22124157.131 9 116263232.352 9  90594719.154 9  22124154.164 9  22124155.885 9
  25003124.218 7 131392313.281 7 102383610.577 5  25003122.676 5  25003123.220 5
  24180966.395 8 127071837.443 8  99016999.100 6  24180962.685 6  24180964.977 6
  24558957.414 7 129058192.338 7
  20472840.852 9 107585551.720 9  83832896.099 9  20472835.202 9  20472839.453 9
  25535446.841 6 134189685.895 6
 09  6 30  0 56  0.0000000  0 11G22G 7G 3G 6G11G32G 8G14G20G19G28
  22662521.786 9 119092397.054 9  92799261.601 8  22662516.633 8  22662521.145 8
  25318522.804 6 133049739.027 6 103675119.425 5  25318519.440 5  25318520.528 5
  20643099.594 9 108480277.396 9  84530086.146 9  20643096.529 9  20643098.493 9
  21485099.289 9 112905032.809 9  87977958.693 9  21485096.552 9  21485098.605 9
  21917513.976 9 115177316.671 9  89748552.053 9  21917509.742 9  21917513.140 9
  22106427.940 9 116170065.189 9  90522121.384 9  22106425.419 9  22106426.760 9
  25008761.860 7 131421944.361 7 102406699.765 5  25008761.744 5  25008761.038 5
  24170426.363 7 127016450.566 7  98973840.505 6  24170423.736 6  24170424.946 6
  24537459.853 7 128945213.386 7 100476780.79615  24537455.422 5  24537458.515 5
  20471086.672 9 107576332.478 9  83825712.271 9  20471080.950 9  20471085.071 9
  25517121.049 6 134093379.100 6
 09  6 30  0 56 30.0000000  0 11G22G 7G 3G 6G11G32G 8G14G20G19G28
  22676746.221 9 119167147.330 9  92857508.577 8  22676741.203 8  22676745.752 8
  25331186.115 7 133116291.903 7 103726978.859 5  25331184.780 5  25331185.378 5
  20652020.314 9 108527156.336 9  84566615.185 9  20652017.443 9  20652019.472 9
  21495242.944 9 112958337.342 9  88019494.686 9  21495240.178 9  21495242.232 9
  21905525.471 9 115114316.056 9  89699460.694 9  21905520.738 9  21905524.719 9
  22088759.683 9 116077218.498 9  90449773.329 9  22088757.417 9  22088758.304 9
  25014487.071 7 131452027.778 7 102430141.396 5  25014486.721 5  25014486.103 5
  24159946.638 7 126961383.824 7  98930931.339 6  24159944.469 6  24159946.166 6
  24515972.279 7 128832302.526 7 100388798.228 4  24515968.688 4  24515972.001 4
  20469391.811 9 107567426.744 9  83818772.734 9  20469386.045 9  20469390.394 9
  25498827.033 6 133997252.633 6
 09  6 30  0 57  0.0000000  0 11G22G 7G 3G 6G11G32G 8G14G20G19G28
  22691037.953 9 119242249.258 9  92916029.556 8  22691032.477 8  22691036.999 8
  25343873.826 7 133182966.232 7 103778932.775 5  25343870.943 5  25343872.503 5
  20661013.069 9 108574413.030 9  84603438.579 9  20661010.187 9  20661012.043 9
  21505447.121 9 113011960.639 9  88061279.071 9  21505444.241 9  21505446.252 9
  21893575.216 9 115051518.576 9  89650527.602 9  21893570.646 9  21893574.940 9
  22071153.147 9 115984694.683 9  90377676.852 8  22071150.517 8  22071151.765 8
  25020297.845 7 131482561.444 7 102453933.868 5  25020296.414 5  25020296.783 5
  24149529.610 7 126906640.115 7  98888273.882 5  24149526.281 5  24149528.456 5
  24494499.659 7 128719461.817 7 100300870.396 5  24494497.282 5  24494498.519 5
  20467756.966 9 107558835.599 9  83812078.329 9  20467751.272 9  20467755.573 9
  25480571.228 6 133901309.048 6
 09  6 30  0 57 30.0000000  0 11G22G 7G 3G 6G11G32G 8G14G20G19G28
  22705395.554 9 119317700.359 9  92974822.632 8  22705390.312 8  22705395.074 8
  25356584.856 7 133249759.793 7 103830979.746 5  25356581.412 5  25356583.314 5
  20670077.632 9 108622047.890 9  84640556.644 9  20670074.797 9  20670076.472 9
  21515711.826 9 113065902.438 9  88103311.651 9  21515709.043 9  21515710.984 9
  21881664.134 9 114988924.211 9  89601752.781 9  21881659.303 9  21881663.598 9
  22053608.385 9 115892496.233 9  90305833.889 9  22053605.288 9  22053607.079 9
  25026193.952 7 131513543.341 7 102478075.665 4  25026191.356 4  25026191.814 4
  24139174.659 7 126852221.691 7  98845869.958 6  24139170.541 6  24139173.584 6
  24473040.843 7 128606693.620 7 100212999.073 5  24473039.099 5  24473039.254 5
  20466182.054 9 107550560.158 9  83805629.932 9  20466176.605 9  20466180.593 9
  25462348.515 6 133805550.642 6
 09  6 30  0 58  0.0000000  0 11G22G 7G 3G 6G11G32G 8G14G20G19G28
  22719819.732 9 119393498.761 9  93033886.328 8  22719814.032 8  22719818.787 8
  25369318.153 7 133316669.474 7 103883117.196 5  25369313.398 5  25369316.727 5
  20679214.056 9 108670060.485 9  84677969.051 9  20679211.068 9  20679213.112 9
  21526037.260 9 113120162.775 9  88145592.445 9  21526034.426 9  21526036.400 9
  21869791.829 9 114926534.052 9  89553137.081 9  21869787.197 9  21869790.869 9
  22036125.806 9 115800625.472 9  90234246.262 9  22036122.896 9  22036124.690 9
  25032173.386 7 131544971.170 7 102502564.939 4  25032170.917 4  25032172.785 4
  24128881.762 7 126798131.803 7  98803721.988 5  24128877.844 5  24128880.599 5
  24451596.125 7 128494000.234 7 100125186.039 6  24451593.101 6  24451595.237 6
  20464667.654 9 107542602.022 9  83799428.786 9  20464662.220 9  20464666.278 9
  25444161.843 7 133709980.461 7
 09  6 30  0 58 30.0000000  0 11G22G 7G 3G 6G11G32G 8G14G20G19G28
  22734309.364 9 119469641.596 9  93093218.415 8  22734303.476 8  22734308.439 8
  25382070.871 6 133383692.161 6 103935342.706 4  25382067.780 4  25382071.063 4
  20688422.528 9 108718450.223 9  84715675.347 9  20688419.605 9  20688421.571 9
  21536423.427 9 113174741.420 9  88188121.264 9  21536420.390 9  21536422.338 9
  21857957.701 9 114864347.327 9  89504679.891 9  21857953.740 9  21857957.009 9
  22018706.187 9 115709084.862 9  90162915.898 9  22018703.491 9  22018705.056 9
  25038236.960 6 131576842.743 6                                  25038236.789
  24118651.507 7 126744372.995 7  98761832.017 6  24118647.153 6  24118650.501 6
  24430165.953 7 128381383.622 7 100037432.789 5  24430162.526 5  24430165.369 5
  20463213.898 9 107534961.739 9  83793475.317 9  20463208.334 9  20463212.436 9
  25426011.689 7 133614600.542 7
 09  6 30  0 59  0.0000000  0 11G22G 7G 3G 6G11G32G 8G14G20G19G28
  22748863.905 9 119546126.529 9  93152817.082 8  22748858.613 8  22748863.047 8
  25394846.205 7 133450824.818 7 103987653.904 5  25394843.097 5  25394845.936 5
  20697702.385 9 108767216.984 9  84753675.415 9  20697699.372 9  20697701.470 9
  21546869.850 9 113229638.353 9  88230898.096 9  21546866.873 9  21546869.034 9
  21846162.651 9 114802364.722 9  89456381.742 9  21846159.198 9  21846161.896 9
  22001350.125 9 115617876.941 9  90091844.768 9  22001347.309 9  22001348.672 9
  25044386.683 6 131609155.772 6 102552578.971 5  25044385.008 5  25044385.374 5
  24108485.329 7 126690947.983 7  98720202.151 5  24108481.382 5  24108484.365 5
  24408750.430 7 128268846.053 7  99949741.148 5  24408747.278 5  24408749.832 5
  20461820.826 9 107527640.581 9  83787770.525 9  20461815.182 9  20461819.390 9
  25407897.971 7 133519413.137 7
 09  6 30  0 59 30.0000000  0 11G22G 7G 3G 6G11G32G 8G14G20G19G28
  22763483.152 9 119622951.405 9  93212680.617 8  22763477.830 8  22763482.601 8
  25407641.871 7 133518064.290 7 104040048.251 5  25407638.839 5  25407640.812 5
  20707054.104 9 108816360.241 9  84791968.862 9  20707051.187 9  20707053.296 9
  21557376.891 9 113284853.413 9  88273922.820 9  21557373.991 9  21557376.105 9
  21834406.790 9 114740586.385 9  89408242.757 9  21834403.056 9  21834406.154 9
  21984057.529 9 115527003.951 9  90021034.616 9  21984054.865 9  21984056.322 9
  25050620.580 7 131641908.155 7 102578100.316 4  25050617.725 4  25050619.088 4
  24098383.143 7 126637859.584 7  98678834.552 6  24098378.658 6  24098382.108 6
  24387351.278 7 128156389.819 7  99862112.901 5  24387348.154 5  24387351.045 5
  20460488.353 9 107520639.325 9  83782315.010 9  20460482.725 9  20460487.167 9
  25389821.665 7 133424420.943 7
 09  6 30  1  0  0.0000000  0 11G22G 7G 3G 6G11G32G 8G14G20G19G28
  22778166.458 9 119700113.760 9  93272807.134 8  22778161.400 8  22778165.998 8
  25420457.344 6 133585407.812 6 104092523.716 5  25420452.296 5  25420455.200 5
  20716477.385 9 108865879.835 9  84830555.553 9  20716474.248 9  20716476.227 9
  21567944.448 9 113340386.343 9  88317195.230 9  21567941.651 9  21567943.525 9
  21822689.791 9 114679012.710 9  89360263.259 9  21822685.979 9  21822689.100 9
  21966829.130 9 115436468.327 9  89950487.351 9  21966826.446 9  21966827.697 9
  25056935.732 6 131675098.291 6 102603962.850 5  25056932.773 5  25056934.208 5
  24088344.604 7 126585110.555 7  98637731.414 6  24088341.140 6  24088344.117 6
  24365967.358 8 128044016.837 8  99774549.522 6  24365964.910 6  24365967.686 6
  20459217.303 9 107513958.944 9  83777109.514 9  20459211.561 9  20459215.845 9
  25371782.478 7 133329626.269 7
 09  6 30  1  0 30.0000000  0 11G22G 7G 3G 6G11G32G 8G14G20G19G28
  22792913.757 9 119777611.035 9  93333194.635 8  22792908.648 8  22792912.858 8
  25433290.180 6 133652852.331 6 104145078.087 4  25433286.249 4  25433289.470 4
  20725972.130 9 108915775.784 9  84869435.510 9  20725969.416 9  20725971.171 9
  21578572.473 9 113396236.913 9  88360715.134 9  21578569.546 9  21578571.773 9
  21811011.908 9 114617643.762 9  89312443.300 9  21811007.786 9  21811010.910 9
  21949665.385 9 115346272.498 9  89880204.876 9  21949663.043 9  21949664.215 9
  25063335.720 6 131708723.520 6 102630164.321 5  25063331.012 5  25063332.201 5
  24078373.041 7 126532703.402 7  98596894.689 5  24078369.062 5  24078372.192 5
  24344599.856 8 127931729.474 8  99687052.860 6  24344597.341 6  24344599.579 6
  20458007.471 9 107507600.947 9  83772155.226 9  20458001.630 9  20458006.113 9
  25353782.048 7 133235031.746 7 103819491.67915  25353780.725 5  25353780.818 5
 09  6 30  1  1  0.0000000  0 11G22G 7G 3G 6G11G32G 8G14G20G19G28
  22807724.499 9 119855440.918 9  93393841.304 8  22807719.162 8  22807723.236 8
  25446143.435 7 133720394.416 7 104197708.348 5  25446139.246 5  25446142.259 5
  20735538.493 9 108966047.480 9  84908608.251 9  20735535.776 9  20735537.507 9
  21589260.877 9 113452405.153 9  88404482.575 9  21589257.984 9  21589260.103 9
  21799372.698 9 114556479.981 9  89264783.224 9  21799368.499 9  21799371.912 9
  21932566.630 9 115256418.934 9  89810189.132 9  21932564.520 9  21932565.854 9
  25069816.091 6 131742781.548 6 102656703.066 4  25069811.329 4  25069814.477 4
  24068464.653 7 126480640.817 7  98556326.473 5  24068461.851 5  24068463.696 5
  24323249.422 7 127819529.837 7  99599624.552 6  24323246.936 6  24323248.343 6
  20456859.026 9 107501566.310 9  83767452.908 9  20456853.402 9  20456857.597 9
  25335820.267 7 133140639.898 7 103745939.602 4  25335814.579 4  25335818.139 4
 09  6 30  1  1 30.0000000  0 11G22G 7G 3G 6G11G32G 8G14G20G19G28
  22822597.372 9 119933601.240 9  93454745.456 8  22822592.159 8  22822596.700 8
  25459014.726 6 133788031.872 6 104250412.871 4  25459009.765 4  25459013.967 4
  20745176.295 9 109016694.158 9  84948073.186 9  20745173.578 9  20745175.414 9
  21600009.760 9 113508890.932 9  88448497.467 9  21600006.867 9  21600009.018 9
  21787772.627 9 114495521.282 9  89217282.948 9  21787767.618 9  21787771.705 9
  21915533.804 9 115166909.821 9  89740441.777 9  21915531.274 9  21915533.140 9
  25076380.446 6 131777270.253 6 102683577.321 5  25076373.515 5  25076378.374 5
  24058623.686 7 126428925.607 7  98516028.939 6  24058620.290 6  24058622.891 6
  24301915.479 7 127707420.236 7  99512266.404 6  24301913.612 6  24301914.513 6
  20455772.537 9 107495855.921 9  83763003.262 9  20455766.773 9  20455770.930 9
  25317896.411 7 133046453.177 7 103672547.402 5  25317892.366 5  25317897.060 5
 09  6 30  1  2  0.0000000  0 11G22G 7G 3G 6G11G32G 8G14G20G19G28
  22837533.759 9 120012089.621 9  93515905.224 8  22837528.141 8  22837532.623 8
  25471903.386 6 133855761.204 6 104303189.102 5  25471899.057 5  25471900.939 5
  20754885.401 9 109067715.831 9  84987830.323 9  20754882.970 9  20754884.502 9
  21610819.041 9 113565693.822 9  88492759.469 9  21610815.892 9  21610818.158 9
  21776211.678 9 114434768.259 9  89169942.935 9  21776207.231 9  21776210.987 9
  21898566.792 9 115077747.582 9  89670964.717 9  21898564.668 9  21898566.131 9
  25083022.341 6 131812187.372 6 102710785.483 5  25083019.827 5  25083023.053 5
  24048848.890 7 126377560.471 7  98476004.146 6  24048846.206 6  24048847.414 6
  24280598.989 7 127595402.804 7  99424980.085 5  24280596.432 5  24280597.421 5
  20454747.526 9 107490470.855 9  83758807.114 9  20454741.965 9  20454746.183 9
  25300013.108 7 132952473.897 7 103599316.793 5  25300008.128 5  25300011.809 5
 09  6 30  1  2 30.0000000  0 11G22G 7G 3G 6G11G32G 8G14G20G19G28
  22852531.365 9 120090903.641 9  93577318.755 8  22852526.097 8  22852530.765 8
  25484809.274 6 133923579.559 6 104356034.625 4  25484804.109 4  25484807.030 4
  20764665.647 9 109119111.815 9  85027879.143 9  20764663.144 9  20764664.832 9
  21621688.626 9 113622813.891 9  88537268.609 9  21621685.556 9  21621687.615 9
  21764689.984 9 114374221.172 9  89122763.394 9  21764685.464 9  21764689.352 9
  21881666.057 9 114988934.458 9  89601759.688 9  21881663.906 9  21881665.279 9
  25089747.715 6 131847530.698 6
  24039141.829 7 126326547.924 7  98436254.124 6  24039138.511 6  24039140.099 6
  24259300.913 7 127483479.702 7  99337767.295 6  24259298.295 6  24259299.340 6
  20453785.144 9 107485412.167 9  83754865.290 9  20453779.249 9  20453783.733 9
  25282169.030 7 132858704.555 7 103526249.801 5  25282164.885 5  25282167.688 5
 09  6 30  1  3  0.0000000  0 11G22G 7G 3G 6G11G32G 8G14G20G19G28
  22867590.667 9 120170041.223 9  93638984.410 8  22867585.491 8  22867589.823 8
  25497730.203 6 133991483.821 6 104408947.008 5  25497726.971 5  25497729.065 5
  20774517.487 9 109170882.228 9  85068219.730 9  20774514.502 9  20774516.613 9
  21632618.683 9 113680250.901 9  88582024.714 9  21632615.566 9  21632617.717 9
  21753207.455 9 114313880.110 9  89075744.375 9  21753203.205 9  21753206.734 9
  21864832.802 9 114900472.955 9  89532828.649 9  21864830.159 9  21864831.669 9
  25096554.961 6 131883297.709 6 102766196.175 5  25096552.672 5  25096553.811 5
  24029501.249 7 126275890.632 7  98396780.955 6  24029498.952 6  24029500.835 6
  24238020.428 7 127371653.262 7  99250629.820 5  24238017.757 5  24238019.386 5
  20452884.515 9 107480680.981 9  83751178.656 9  20452878.922 9  20452883.330 9
  25264366.684 7 132765147.577 7 103453348.239 5  25264360.943 5  25264364.516 5
 09  6 30  1  3 30.0000000  0 11G22G 7G 3G 6G11G32G 8G14G20G19G28
  22882711.352 8 120249499.415 8  93700899.887 8  22882706.127 8  22882710.365 8
  25510668.837 6 134059471.319 6
  20784440.083 9 109223026.398 9  85108851.550 9  20784437.146 9  20784439.213 9
  21643608.606 9 113738004.518 9  88627027.522 9  21643605.681 9  21643607.942 9
  21741763.977 9 114253745.307 9  89028886.097 9  21741760.389 9  21741763.450 9
  21848066.238 9 114812365.208 9  89464173.261 9  21848063.640 9  21848065.272 9
  25103441.907 7 131919486.385 7
  24019931.101 7 126225591.490 7  98357586.802 5  24019926.584 5  24019929.660 5
  24216759.965 7 127259925.685 7  99163569.400 5  24216756.444 5  24216758.375 5
  20452046.959 9 107476278.495 9  83747748.149 9  20452041.229 9  20452045.432 9
  25246604.116 7 132671805.766 7 103380614.374 5  25246599.784 5  25246603.230 5
 09  6 30  1  4  0.0000000  0 11G22G 7G 3G 6G11G32G 8G14G20G19G28
  22897892.180 8 120329276.060 8  93763063.499 8  22897886.741 8  22897890.955 8
  25523620.828 6 134127538.862 6
  20794433.942 9 109275544.046 9  85149774.390 9  20794430.857 9  20794432.825 9
  21654659.133 9 113796074.511 9  88672276.850 9  21654656.143 9  21654658.370 9
  21730360.072 9 114193817.156 9  88982188.868 9  21730356.423 9  21730359.492 9
  21831367.474 9 114724613.642 9  89395795.429 9  21831365.054 9  21831366.614 9
  25110406.777 6 131956094.186 6 102822920.748 5  25110404.356 5  25110405.836 5
  24010427.437 7 126175652.846 7  98318673.564 6  24010424.265 6  24010426.421 6
  24195517.945 7 127148298.782 7  99076587.419 5  24195513.991 5  24195516.174 5
  20451271.864 9 107472205.403 9  83744574.311 9  20451266.085 9  20451270.397 9
  25228883.224 7 132578681.529 7 103308050.040 5  25228878.697 5  25228882.107 5
 09  6 30  1  4 30.0000000  0 11G22G 7G 3G 6G11G32G 8G14G20G19G28
  22913133.465 8 120409368.578 8  93825473.245 8  22913127.759 8  22913131.981 8
  25536587.676 5 134195683.557 5
  20804498.749 9 109328434.924 9  85190988.061 9  20804496.092 9  20804497.632 9
  21665769.694 9 113854460.739 9  88717772.613 9  21665766.422 9  21665768.877 9
  21718995.806 9 114134095.885 9  88935652.826 9  21718991.444 9  21718994.845 9
  21814737.230 9 114637220.537 9  89327696.943 9  21814734.775 9  21814735.923 9
  25117453.332 6 131993119.102 6                                  25117451.637
  24000993.949 7 126126077.388 7  98280043.345 6  24000990.563 6  24000993.523 6
  24174295.714 7 127036774.974 7  98989685.735 5  24174291.478 5  24174294.430 5
  20450559.651 9 107468462.861 9  83741658.049 9  20450553.989 9  20450558.227 9
  25211203.442 7 132485776.970 7 103235656.888 5  25211199.369 5  25211203.519 5
 09  6 30  1  5  0.0000000  0 11G22G 7G 3G 6G11G32G 8G14G20G19G28
  22928434.052 9 120489774.724 9  93888127.394 8  22928428.666 8  22928433.398 8
  25549568.493 5 134263902.494 5
  20814634.611 9 109381698.387 9  85232492.058 9  20814631.459 9  20814633.522 9
  21676940.267 9 113913162.942 9  88763514.584 9  21676937.130 9  21676939.378 9
  21707670.662 9 114074581.807 9  88889278.236 9  21707666.283 9  21707669.764 9
  21798175.469 9 114550188.156 9  89259879.510 9  21798172.734 9  21798174.376 9
  25124577.369 6 132030558.364 6 102880944.807 4  25124575.690 4  25124575.019 4
  23991629.397 7 126076867.543 7  98241698.037 6  23991626.663 6  23991629.469 6
  24153093.676 7 126925356.823 7  98902866.391 5  24153089.801 5  24153091.741 5
  20449910.558 9 107465052.041 9  83739000.275 9  20449904.835 9  20449909.163 9
  25193567.470 7 132393094.787 7 103163437.009 5  25193561.870 5  25193565.913 5
 09  6 30  1  5 30.0000000  0 11G22G 7G 3G 6G11G32G 8G14G20G19G28
  22943794.264 9 120570492.040 9  93951024.008 8  22943789.085 8  22943793.880 8
  25562564.597 5 134332192.39915
  20824840.841 9 109435333.715 9  85274285.823 9  20824837.862 9  20824840.050 9
  21688171.222 9 113972180.962 9  88809502.643 9  21688168.165 9  21688170.183 9
  21696384.724 9 114015275.031 9  88843065.196 9  21696380.625 9  21696383.980 9
  21781682.964 9 114463518.804 9  89192344.963 9  21781680.161 9  21781681.829 9
  25131781.344 6 132068409.718 6
  23982335.200 7 126028025.913 7  98203639.640 6  23982331.248 6  23982334.286 6
  24131911.568 7 126814046.067 7  98816130.753 6  24131908.708 6  24131910.007 6
  20449325.035 9 107461974.118 9  83736601.902 9  20449319.274 9  20449323.411 9
  25175972.915 7 132300637.582 7 103091392.429 5  25175968.310 5  25175971.885 5
 09  6 30  1  6  0.0000000  0 11G22G 7G 3G 6G11G32G 8G14G20G19G28
  22959213.145 9 120651518.248 9  94014161.320 8  22959208.012 8  22959212.723 8
  25575573.866 5 134400550.820 5
  20835118.194 9 109489341.082 9  85316369.478 9  20835115.135 9  20835117.014 9
  21699461.678 9 114031514.217 9  88855736.345 9  21699459.158 9  21699461.148 9
  21685138.635 9 113956175.737 9  88797013.831 9  21685134.247 9  21685137.633 9
  21765259.781 9 114377214.708 9  89125095.030 9  21765257.070 9  21765258.639 9
  25139061.534 6 132106670.898 6 102940253.287 5  25139060.182 5  25139059.249 5
  23973112.152 7 125979555.252 7  98165870.299 6  23973107.468 6  23973110.626 6
  24110750.639 7 126702844.829 7  98729480.432 6  24110748.468 6  24110749.192 6
  20448802.749 9 107459229.682 9  83734463.388 9  20448796.918 9  20448801.366 9
  25158422.122 7 132208407.494 7 103019524.820 5  25158417.681 5  25158421.380 5
 09  6 30  1  6 30.0000000  0 11G22G 7G 3G 6G11G32G 8G14G20G19G28
  22974689.831 9 120732851.055 9  94077537.528 8  22974685.013 8  22974689.642 8
  25588591.537 4
  20845465.746 9 109543719.015 9  85358741.890 9  20845462.873 9  20845464.811 9
  21710812.798 9 114091162.768 9  88902215.731 9  21710809.597 9  21710811.626 9
  21673931.774 9 113897284.035 9  88751124.225 9  21673927.472 9  21673931.174 9
  21748906.386 9 114291278.141 9  89058131.493 9  21748903.868 9  21748905.493 9
  25146420.272 6 132145339.436 6 102970384.637 5  25146417.501 5  25146418.001 5
  23963958.718 7 125931458.197 7  98128392.070 6  23963954.818 6  23963957.986 6
  24089611.395 7 126591755.409 7  98642917.231 6  24089609.015 6  24089610.125 6
  20448344.033 9 107456819.897 9  83732585.639 9  20448338.417 9  20448342.707 9
  25140915.055 7 132116407.216 7 102947836.316 5  25140911.495 5  25140913.716 5
 09  6 30  1  7  0.0000000  0 11G22G 7G 3G 6G11G32G 8G14G20G19G28
  22990225.170 9 120814487.788 9  94141150.560 8  22990219.519 8  22990224.194 8
  25601625.554 5 134537481.37415
  20855884.306 9 109598467.980 9  85401403.411 9  20855881.453 9  20855883.153 9
  21722222.930 9 114151126.145 9  88948940.440 9  21722219.932 9  21722222.178 9
  21662764.831 9 113838600.625 9  88705396.908 9  21662760.527 9  21662763.941 9
  21732623.754 9 114205711.353 9  88991456.101 9  21732621.443 9  21732622.667 9
  25153856.312 6 132184413.196 6 103000831.638 4  25153853.438 4  25153853.051 4
  23954877.899 7 125883737.071 7  98091206.780 6  23954873.813 6  23954876.790 6
  24068493.502 7 126480779.975 7  98556442.848 6  24068490.212 6  24068492.200 6
  20447949.406 9 107454745.975 9  83730969.601 9  20447943.603 9  20447947.920 9
  25123451.465 7 132024639.083 7 102876328.681 4  25123448.417 4  25123452.084 4
 09  6 30  1  7 30.0000000  0 11G22G 7G 3G 6G11G32G 8G14G20G19G28
  23005817.707 9 120896426.163 9  94204998.654 8  23005811.695 8  23005816.677 8
  25614665.504 5
  20866373.196 9 109653587.380 9  85444353.588 9  20866370.151 9  20866372.245 9
  21733693.539 9 114211404.144 9  88995910.312 9  21733690.897 9  21733692.711 9
  21651637.108 9 113780125.540 9  88659831.897 9  21651632.753 9  21651636.372 9
  21716411.795 9 114120516.473 9  88925070.497 9  21716408.915 9  21716410.447 9
  25161367.364 6 132223889.612 6 103031592.461 5  25161366.906 5  25161365.413 5
  23945868.814 8 125836394.841 8  98054316.726 6  23945864.810 6  23945868.752 6
  24047397.141 7 126369920.902 7  98470059.149 6  24047394.294 6  24047395.950 6
  20447618.846 9 107453008.624 9  83729615.829 9  20447613.034 9  20447617.363 9
  25106033.709 7 131933105.776 7 102805004.098 5  25106030.808 5  25106034.236 5
 09  6 30  1  8  0.0000000  0 11G22G 7G 3G 6G11G32G 8G14G20G19G28
  23021466.561 9 120978663.696 9  94269079.856 8  23021461.149 8  23021465.855 8
  25627720.930 5
  20876932.504 9 109709076.206 9  85487591.626 9  20876929.552 9  20876931.390 9
  21745223.871 9 114271996.427 9  89043125.074 9  21745221.270 9  21745222.997 9
  21640549.302 9 113721858.811 9  88614429.242 9  21640545.110 9  21640548.346 9
  21700270.687 9 114035695.896 9  88858976.557 9  21700267.912 9  21700269.411 9
  25168955.824 6 132263766.214 6 103062665.142 5  25168954.548 5  25168956.305 5
  23936932.323 8 125789433.924 8  98017723.825 6  23936928.419 6  23936932.526 6
  24026323.905 8 126259180.437 8  98383767.888 6  24026320.911 6  24026322.889 6
  20447352.480 9 107451608.799 9  83728525.059 9  20447346.719 9  20447350.963 9
  25088660.263 7 131841809.876 7 102733864.421 4  25088658.146 4  25088660.573 4
 09  6 30  1  8 30.0000000  0 11G22G 7G 3G 6G11G32G 8G14G20G19G28
  23037171.951 9 121061197.975 9  94333392.283 8  23037166.531 8  23037171.858 8
  25640792.026 4
  20887562.053 9 109764934.425 9  85531117.499 9  20887558.891 9  20887560.657 9
  21756813.969 9 114332902.602 9  89090584.421 9  21756811.539 9  21756813.146 9
  21629501.598 9 113663800.939 9  88569189.344 9  21629496.988 9  21629500.565 9
  21684201.427 9 113951251.732 9  88793175.944 9  21684198.943 9  21684200.136 9
  25176619.352 6 132304040.565 6
  23928069.274 8 125742856.276 8  97981429.535 6  23928065.010 6  23928069.059 6
  24005274.012 8 126148560.612 8  98297570.613 6  24005270.743 6  24005273.239 6
  20447150.322 9 107450547.723 9  83727698.252 9  20447144.792 9  20447149.068 9
  25071332.844 7 131750753.386 7 102662911.344 4  25071330.527 4  25071332.612 4
 09  6 30  1  9  0.0000000  0 11G22G 7G 3G 6G11G32G 8G14G20G19G28
  23052934.123 9 121144026.377 9  94397933.907 8  23052928.486 8  23052933.797 8
  25653866.030 5
  20898261.388 9 109821161.270 9  85574930.615 9  20898258.509 9  20898260.502 9
  21768463.687 9 114394122.590 9  89138288.291 9  21768461.116 9  21768462.950 9
  21618492.924 9 113605952.231 9  88524112.429 9  21618488.437 9  21618492.283 9
  21668204.425 9 113867186.171 9  88727670.343 9  21668201.968 9  21668202.933 9
  25184358.458 6 132344710.185 6
  23919279.239 8 125696664.659 8  97945436.057 6  23919276.117 6  23919279.040 6
  23984247.114 8 126038063.489 8  98211468.937 6  23984244.167 6  23984246.667 6
  20447013.288 9 107449826.340 9  83727136.141 9  20447007.364 9  20447011.730 9
  25054050.633 7 131659939.091 7 102592146.981 4  25054048.545 4  25054050.857 4
 09  6 30  1  9 30.0000000  0 11G22G 7G 3G 6G11G32G 8G14G20G19G28
  23068751.314 9 121227146.871 9  94462703.117 8  23068746.075 8  23068751.230 8
  25666949.808 5
  20909030.990 9 109877756.204 9  85619030.557 9  20909028.157 9  20909030.134 9
  21780173.008 9 114455655.837 9  89186236.263 9  21780170.596 9  21780172.142 9
  21607524.690 9 113548312.857 9  88479198.648 9  21607520.595 9  21607523.875 9
  21652279.913 9 113783501.403 9  88662461.471 9  21652277.305 9  21652278.593 9
  25192170.410 5 132385772.437 5
  23910562.792 8 125650861.898 8  97909745.588 6  23910560.270 6  23910562.707 6
  23963243.712 7 125927691.277 7  98125464.576 6  23963240.738 6  23963243.101 6
  20446940.818 9 107449445.861 9  83726839.663 9  20446935.006 9  20446939.284 9
  25036816.423 7 131569369.625 7 102521573.379 5  25036813.467 5  25036815.328 5
 09  6 30  1 10  0.0000000  0 11G22G 7G 3G 6G11G32G 8G14G20G19G28
  23084623.924 9 121310556.951 9  94527697.976 8  23084618.399 8  23084623.493 8
  25680043.161 4
  20919870.681 9 109934718.889 9  85663417.064 9  20919867.739 9  20919869.598 9
  21791941.929 9 114517502.202 9  89234428.228 9  21791939.453 9  21791941.091 9
  21596596.156 9 113490882.991 9  88434448.129 9  21596591.853 9  21596595.179 9
  21636427.776 9 113700199.612 9  88597551.023 9  21636425.518 9  21636426.883 9
  25200061.232 6 132427225.031 6
  23901921.459 8 125605450.263 8  97874359.891 6  23901919.026 6  23901920.671 6
  23942265.522 7 125817446.186 7  98039559.301 6  23942261.495 6  23942263.542 6
  20446933.692 9 107449407.020 9  83726809.391 9  20446927.642 9  20446932.003 9
  25019628.938 7 131479047.183 7 102451192.323 4  25019625.188 4  25019627.278 4
 09  6 30  1 10 30.0000000  0 10G22G 3G 6G11G32G 8G14G20G19G28
  23100551.020 9 121394254.156 9  94592916.573 8  23100545.294 8  23100550.537 8
  20930780.524 9 109992048.965 9  85708089.857 9  20930777.500 9  20930779.539 9
  21803770.625 9 114579661.153 9  89282863.762 9  21803767.818 9  21803769.789 9
  21585707.422 9 113433663.086 9  88389861.203 9  21585703.136 9  21585706.480 9
  21620649.317 9 113617282.950 9  88532940.668 9  21620646.720 9  21620648.203 9
  25208024.464 6 132469065.479 6
  23893354.799 8 125560432.131 8  97839280.811 6  23893351.762 6  23893354.311 6
  23921310.330 8 125707330.236 8  97953754.659 6  23921307.760 6  23921309.807 6
  20446991.145 9 107449710.873 9  83727046.151 9  20446985.520 9  20446989.977 9
  25002488.979 7 131388974.463 7 102381005.832 5  25002485.352 5  25002487.719 5
 09  6 30  1 11  0.0000000  0 10G22G 3G 6G11G32G 8G14G20G19G28
  23116532.022 9 121478236.163 9  94658357.117 8  23116526.550 8  23116531.413 8
  20941759.408 9 110049745.566 9  85753048.247 9  20941756.426 9  20941758.609 9
  21815658.479 9 114642132.390 9  89331542.635 9  21815655.680 9  21815657.681 9
  21574858.764 9 113376653.101 9  88345437.828 9  21574854.721 9  21574858.200 9
  21604944.561 9 113534753.538 9  88468632.050 9  21604941.618 9  21604943.351 9
  25216057.768 6 132511291.211 6
  23884863.850 8 125515809.904 8  97804510.246 7  23884860.123 7  23884862.838 7
  23900381.702 8 125597345.778 8  97868052.473 6  23900378.309 6  23900380.869 6
  20447114.603 9 107450358.338 9  83727550.658 9  20447108.705 9  20447113.135 9
  24985396.061 7 131299153.586 7 102311015.579 5  24985392.523 5  24985396.156 5
 09  6 30  1 11 30.0000000  0 10G22G 3G 6G11G32G 8G14G20G19G28
  23132567.278 8 121562500.546 8  94724017.688 8  23132561.639 8  23132566.378 8
  20952808.620 9 110107808.518 9  85798292.096 9  20952805.725 9  20952807.315 9
  21827605.610 9 114704915.547 9  89380464.563 9  21827602.782 9  21827604.796 9
  21564050.489 9 113319853.470 9  88301178.374 9  21564046.636 9  21564049.819 9
  21589313.890 9 113452613.584 9  88404626.917 9  21589310.908 9  21589312.711 9
  25224166.423 6 132553899.491 6
  23876447.598 8 125471586.041 8  97770050.118 6  23876444.682 6  23876447.221 6
  23879477.475 7 125487494.909 7  97782454.372 6  23879473.264 6  23879477.252 6
  20447303.403 9 107451350.591 9  83728323.832 9  20447297.582 9  20447302.078 9
  24968353.414 7 131209587.487 7 102241223.850 5  24968348.879 5  24968352.943 5
 09  6 30  1 12  0.0000000  0 10G22G 3G 6G11G32G 8G14G20G19G28
  23148655.155 8 121647044.976 8  94789896.449 8  23148649.837 8  23148654.714 8
  20963927.062 9 110166236.911 9  85843820.702 9  20963924.054 9  20963925.919 9
  21839612.395 9 114768010.373 9  89429629.354 9  21839609.371 9  21839611.182 9
  21553281.787 9 113263264.510 9  88257083.102 9  21553277.718 9  21553281.406 9
  21573757.604 9 113370865.124 9  88340926.852 9  21573754.732 9  21573756.282 9
  25232347.983 6 132596888.166 6
  23868108.843 8 125427763.052 8  97735902.333 6  23868106.067 6  23868107.975 6
  23858599.350 7 125377779.866 7  97696962.141 6  23858594.543 6  23858598.156 6
  20447557.926 9 107452688.285 9  83729366.188 9  20447552.215 9  20447556.434 9
  24951358.241 7 131120278.265 7 102171632.282 6  24951353.955 6  24951357.394 6
 09  6 30  1 12 30.0000000  0 10G22G 3G 6G11G32G 8G14G20G19G28
  23164796.519 8 121731866.439 8  94855991.075 8  23164790.760 8  23164795.476 8
  20975115.193 9 110225030.338 9  85889633.748 9  20975112.252 9  20975114.216 9
  21851678.231 9 114831416.287 9  89479036.552 9  21851675.543 9  21851677.377 9
  21542553.374 9 113206886.381 9  88213152.106 9  21542549.475 9  21542552.854 9
  21558276.206 9 113289510.177 9  88277533.371 9  21558273.034 9  21558275.071 9
  25240597.530 6 132640254.357 6
  23859846.035 8 125384343.247 8  97702068.727 6  23859843.403 6  23859845.160 6
  23837748.059 8 125268202.671 8  97611577.304 6  23837743.259 6  23837746.695 6
  20447878.338 9 107454372.394 9  83730678.478 9  20447872.547 9  20447876.878 9
  24934411.995 7 131031228.348 7 102102242.768 6  24934408.077 6  24934411.144 6
 09  6 30  1 13  0.0000000  0 10G22G 3G 6G11G32G 8G14G20G19G28
  23180989.922 9 121816963.163 9  94922300.217 8  23180984.236 8  23180989.032 8
  20986372.415 9 110284187.848 9  85935730.505 9  20986369.599 9  20986371.676 9
  21863803.057 9 114895133.087 9  89528686.000 9  21863800.307 9  21863802.411 9
  21531865.104 9 113150719.482 9  88169385.698 9  21531860.917 9  21531864.377 9
  21542870.352 9 113208551.057 9  88214448.345 9  21542867.343 9  21542869.170 9
  25248920.496 5 132683995.562 5
  23851661.036 8 125341329.297 8  97668551.358 6  23851657.654 6  23851659.583 6
  23816922.809 8 125158765.580 8  97526301.661 6  23816918.835 6  23816921.099 6
  20448264.989 9 107456404.145 9  83732261.649 9  20448259.085 9  20448263.437 9
  24917515.762 7 130942440.394 7 102033057.366 5  24917512.693 5  24917514.851 5
 09  6 30  1 13 30.0000000  0 10G22G 3G 6G11G32G 8G14G20G19G28
  23197235.096 8 121902332.799 8  94988822.017 8  23197229.293 8  23197234.500 8
  20997699.122 9 110343708.934 9  85982110.567 9  20997696.119 9  20997697.904 9
  21875987.214 9 114959160.193 9  89578577.246 9  21875983.784 9  21875986.160 9
  21521216.918 9 113094763.929 9  88125783.972 9  21521212.927 9  21521216.090 9
  21527539.830 9 113127989.748 9  88151673.315 9  21527537.158 9  21527538.765 9
  25257316.409 6 132728109.015 6
  23843553.558 8 125298723.441 8  97635351.969 7  23843549.905 7  23843552.567 7
  23796124.267 8 125049470.993 8  97441137.046 6  23796120.886 6  23796123.430 6
  20448717.861 9 107458784.409 9  83734116.390 9  20448712.067 9  20448716.522 9
  24900669.710 7 130853916.666 7 101964077.869 5  24900667.122 5  24900669.537 5
 09  6 30  1 14  0.0000000  0 10G22G 3G 6G11G32G 8G14G20G19G28
  23213531.758 8 121987972.604 8  95055554.317 8  23213525.873 8  23213531.347 8
  21009094.298 9 110403593.067 9  86028773.517 9  21009091.441 9  21009093.461 9
  21888230.000 9 115023497.285 9  89628710.048 9  21888226.931 9  21888229.186 9
  21510609.288 9 113039019.760 9  88082346.964 9  21510604.980 9  21510608.769 9
  21512285.622 9 113047828.266 9  88089209.858 9  21512282.894 9  21512284.733 9
  25265782.631 6 132772592.378 6
  23835524.128 8 125256527.866 8  97602472.309 6  23835520.197 6  23835523.077 6
  23775353.977 8 124940320.923 8  97356085.092 6  23775350.563 6  23775352.640 6
  20449237.496 9 107461514.026 9  83736243.356 9  20449231.481 9  20449235.994 9
  24883875.681 7 130765659.783 7 101895306.310 5  24883871.366 5  24883875.138 5
 09  6 30  1 14 30.0000000  0 10G22G 3G 6G11G32G 8G14G20G19G28
  23229879.372 8 122073879.886 8  95122495.057 8  23229873.840 8  23229878.583 8
  21020559.009 9 110463839.607 9  86075718.871 9  21020556.217 9  21020557.971 9
  21900531.937 9 115088143.933 9  89679084.052 9  21900528.785 9  21900531.096 9
  21500042.086 9 112983487.676 9  88039075.228 9  21500037.754 9  21500041.187 9
  21497107.933 9 112968068.660 9  88027059.523 9  21497104.773 9  21497107.228 9
  25274316.989 6 132817442.818 6
  23827573.120 8 125214745.243 8  97569914.420 6  23827569.316 6  23827572.381 6
  23754610.870 8 124831317.295 8  97271147.217 6  23754608.087 6  23754610.086 6
  20449823.435 9 107464593.900 9  83738643.250 9  20449817.800 9  20449822.240 9
  24867131.606 7 130677672.189 7 101826744.627 5  24867127.372 5  24867131.098 5
 09  6 30  1 15  0.0000000  0 10G22G 3G 6G11G32G 8G14G20G19G28
  23246277.242 8 122160052.519 8  95189642.559 8  23246272.058 8  23246276.869 8
  21032092.431 9 110524447.883 9  86122946.100 9  21032089.372 9  21032091.323 9
  21912892.393 9 115153099.519 9  89729698.789 9  21912889.513 9  21912891.151 9
  21489514.932 9 112928167.692 9  87995968.771 9  21489510.343 9  21489514.248 9
  21482006.940 9 112888713.076 9  87965223.984 9  21482003.897 9  21482005.935 9
  25282921.398 6 132862657.894 6
  23819701.356 8 125173377.665 8  97537679.938 7  23819697.420 7  23819700.806 7
  23733896.657 8 124722462.465 8  97186325.289 6  23733893.304 6  23733895.190 6
  20450476.423 9 107468025.062 9  83741316.879 9  20450470.649 9  20450475.084 9
  24850439.951 7 130589956.542 7 101758394.794 4  24850435.111 4  24850438.306 4
 09  6 30  1 15 30.0000000  0 10G22G 3G 6G11G32G 8G14G20G19G28
  23262725.226 8 122246488.223 8  95256995.053 8  23262720.252 8  23262724.847 8
  21043694.671 9 110585417.748 9  86170455.076 9  21043691.553 9  21043693.595 9
  21925311.768 9 115218363.973 9  89780554.203 9  21925309.193 9  21925310.952 9
  21479028.411 9 112873059.998 9  87953027.721 9  21479024.121 9  21479027.768 9
  21466983.398 9 112809763.552 9  87903704.864 9  21466980.740 9  21466982.161 9
  25291594.476 6 132908234.978 6
  23811908.292 8 125132427.508 8  97505770.733 7  23811905.163 7  23811908.010 7
  23713211.091 8 124613758.401 8  97101620.836 6  23713207.502 6  23713209.201 6
  20451196.362 9 107471808.270 9  83744264.835 9  20451190.625 9  20451194.889 9
  24833801.645 7 130502514.894 7 101690258.479 5  24833796.078 5  24833799.860 5
 09  6 30  1 16  0.0000000  0 10G22G 3G 6G11G32G 8G14G20G19G28
  23279223.508 8 122333184.660 8  95324550.706 8  23279217.595 8  23279222.590 8
  21055365.578 9 110646748.114 9  86218244.960 9  21055362.395 9  21055364.572 9
  21937789.900 9 115283936.534 9  89831649.687 9  21937787.223 9  21937789.222 9
  21468582.024 9 112818164.904 9  87910252.338 9  21468578.091 9  21468581.090 9
  21452037.396 9 112731221.968 9  87842503.650 9  21452035.007 9  21452036.141 9
  25300335.990 6 132954171.125 6
  23804195.769 7 125091896.888 7  97474188.415 6  23804192.974 6  23804194.560 6
  23692554.168 8 124505207.527 8  97017035.738 6  23692550.277 6  23692552.901 6
  20451983.497 9 107475944.600 9  83747487.944 9  20451977.629 9  20451981.938 9
  24817213.526 7 130415349.908 7 101622337.735 5  24817209.288 5  24817212.436 5
 09  6 30  1 16 30.0000000  0 10G22G 3G 6G11G32G 8G14G20G19G28
  23295770.449 8 122420138.876 8  95392307.256 8  23295765.102 8  23295769.964 8
  21067104.713 9 110708438.376 9  86266315.284 9  21067101.914 9  21067103.720 9
  21950326.607 9 115349816.872 9  89882985.003 9  21950323.817 9  21950325.950 9
  21458176.388 9 112763482.874 9  87867642.974 9  21458172.245 9  21458175.472 9
  21437169.465 9 112653090.349 9  87781621.877 9  21437166.437 9  21437168.293 9
  25309144.614 6 133000464.009 6
  23796563.151 7 125051788.406 7  97442935.030 6  23796560.365 6  23796562.084 6
  23671927.329 8 124396811.785 8  96932571.523 6  23671922.922 6  23671926.278 6
  20452837.886 9 107480435.058 9  83750986.992 9  20452832.249 9  20452836.443 9
  24800679.701 7 130328464.060 7 101554634.521 5  24800675.866 5  24800679.931 5
 09  6 30  1 17  0.0000000  0 10G22G 3G 6G11G32G 8G14G20G19G28
  23312365.730 8 122507348.948 8  95460263.135 8  23312360.592 8  23312365.490 8
  21078912.161 9 110770487.618 9  86314665.329 9  21078909.407 9  21078911.191 9
  21962921.605 9 115416004.483 9  89934559.759 9  21962918.465 9  21962920.766 9
  21447811.340 9 112709014.139 9  87825199.805 9  21447807.274 9  21447810.610 9
  21422380.111 9 112575370.830 9  87721061.213 9  21422377.122 9  21422378.742 9
  25318021.853 6 133047110.932 6
  23789011.795 8 125012104.265 8  97412012.322 6  23789008.267 6  23789010.333 6
  23651330.111 8 124288573.324 8  96848229.865 6  23651326.537 6  23651328.850 6
  20453760.080 9 107485280.477 9  83754762.632 9  20453754.297 9  20453758.660 9
  24784199.373 7 130241859.264 7 101487150.327 4  24784194.967 4  24784199.241 4
 09  6 30  1 17 30.0000000  0 10G22G 3G 6G11G32G 8G14G20G19G28
  23329009.817 8 122594812.356 8  95528416.433 8  23329004.599 8  23329009.175 8
  21090788.230 9 110832895.641 9  86363294.947 9  21090785.206 9  21090787.147 9
  21975575.163 9 115482498.865 9  89986373.551 9  21975572.068 9  21975574.219 9
  21437486.872 9 112654758.672 9  87782922.817 9  21437482.957 9  21437486.189 9
  21407669.322 9 112498065.189 9  87660823.047 9  21407666.284 9  21407668.087 9
  25326966.934 6 133094109.337 6
  23781540.859 7 124972846.628 7  97381421.971 6  23781537.863 6  23781540.313 6
  23630763.408 8 124180494.257 8  96764012.413 6  23630759.092 6  23630762.616 6
  20454749.873 9 107490481.663 9  83758815.499 9  20454744.092 9  20454748.305 9
  24767773.975 7 130155538.548 7 101419887.425 5  24767768.776 5  24767771.295 5
 09  6 30  1 18  0.0000000  0 10G22G 3G 6G11G32G 8G14G20G19G28
  23345700.579 8 122682526.489 8  95596765.111 8  23345696.165 8  23345700.542 8
  21102731.919 9 110895661.131 9  86412203.112 9  21102728.933 9  21102731.010 9
  21988286.783 9 115549299.452 9  90038425.940 9  21988283.927 9  21988286.149 9
  21427203.121 9 112600716.774 9  87740812.249 9  21427198.812 9  21427202.336 9
  21393037.803 9 112421175.456 9  87600908.950 9  21393035.150 9  21393036.354 9
  25335974.668 5 133141455.957 5
  23774151.636 7 124934017.771 7  97351165.724 6  23774149.679 6  23774151.730 6
  23610227.356 8 124072576.783 8  96679920.866 6  23610223.594 6  23610225.914 6
  20455807.231 9 107496039.613 9  83763146.362 9  20455801.614 9  20455805.910 9
  24751401.879 7 130069504.356 7 101352847.872 5  24751397.882 5  24751399.914 5
 09  6 30  1 18 30.0000000  0 10G22G 3G 6G11G32G 8G14G20G19G28
  23362439.978 8 122770489.015 8  95665307.331 8  23362434.220 8  23362439.152 8
  21114743.737 9 110958783.751 9  86461389.561 9  21114741.215 9  21114742.744 9
  22001056.768 9 115616405.882 9  90090716.648 9  22001053.922 9  22001055.938 9
  21416960.005 9 112546888.842 9  87698868.400 9  21416955.513 9  21416959.367 9
  21378485.377 9 112344703.504 9  87541320.403 9  21378482.526 9  21378484.432 9
  25345050.128 6 133189148.671 6
  23766844.936 7 124895619.686 7  97321245.154 6  23766842.012 6  23766844.797 6
  23589722.358 8 123964823.317 8  96595957.169 6  23589719.145 6  23589720.580 6
  20456933.095 9 107501955.194 9  83767755.904 9  20456927.315 9  20456931.648 9
  24735084.812 7 129983759.025 7 101286033.336 5  24735080.495 5  24735083.200 5
 09  6 30  1 19  0.0000000  0 10G22G 3G 6G11G32G 8G14G20G19G28
  23379225.308 8 122858697.669 8  95734041.343 8  23379219.700 8  23379224.561 8
  21126823.329 9 111022262.480 9  86510853.506 9  21126820.624 9  21126822.299 9
  22013884.702 9 115683817.526 9  90143245.184 9  22013881.745 9  22013884.045 9
  21406757.477 9 112493275.350 9  87657091.649 9  21406753.185 9  21406756.816 9
  21364013.372 9 112268651.377 9  87482058.971 9  21364010.232 9  21364012.170 9
  25354189.913 5 133237184.288 5
  23759620.610 7 124857654.887 7  97291662.220 6  23759617.393 6  23759619.916 6
  23569249.058 8 123857235.729 8  96512122.700 6  23569245.925 6  23569247.393 6
  20458126.943 9 107508229.217 9  83772644.753 9  20458121.155 9  20458125.517 9
  24718823.764 7 129898304.800 7 101219445.660 5  24718817.803 5  24718821.658 5
 09  6 30  1 19 30.0000000  0 10G22G 3G 6G11G32G 8G14G20G19G28
  23396057.264 8 122947149.969 8  95802965.222 7  23396051.603 7  23396056.697 7
  21138970.712 9 111086096.845 9  86560594.566 9  21138967.933 9  21138969.615 9
  22026770.731 9 115751533.984 9  90196011.257 9  22026767.894 9  22026769.848 9
  21396596.252 9 112439876.290 9  87615481.995 9  21396591.718 9  21396595.539 9
  21349621.233 9 112193021.025 9  87423126.162 9  21349618.341 9  21349620.621 9
  25363396.736 6 133285560.088 6
  23752479.621 7 124820125.438 7  97262418.490 7  23752476.136 7  23752478.211 7
  23548807.818 8 123749816.019 8  96428419.043 6  23548804.747 6  23548806.666 6
  20459389.235 9 107514862.632 9  83777813.645 9  20459383.578 9  20459387.705 9
  24702617.637 7 129813144.508 7 101153087.076 5  24702612.647 5  24702616.885 5
 09  6 30  1 20  0.0000000  0 10G22G 3G 6G11G32G 8G14G20G19G28
  23412935.051 8 123035843.537 8  95872077.084 8  23412929.488 8  23412934.401 8
  21151185.441 9 111150286.254 9  86610612.282 9  21151182.966 9  21151184.468 9
  22039714.731 9 115819554.667 9  90249014.383 9  22039711.800 9  22039713.542 9
  21386475.696 9 112386691.899 9  87574039.614 9  21386471.026 9  21386474.903 9
  21335309.814 9 112117814.240 9  87364523.473 9  21335307.550 9  21335308.646 9
  25372665.788 6 133334273.967 6
  23745420.868 7 124783033.556 7  97233515.746 6  23745417.560 6  23745419.824 6
  23528398.959 8 123642566.402 8  96344847.945 6  23528395.273 6  23528397.658 6
  20460720.153 9 107521856.256 9  83783263.228 9  20460714.542 9  20460718.707 9
  24686468.479 7 129728280.324 7 101086959.179 5  24686464.370 5  24686467.175 5
 09  6 30  1 20 30.0000000  0 10G22G 3G 6G11G32G 8G14G20G19G28
  23429858.185 8 123124775.855 8  95941375.000 8  23429852.913 8  23429857.293 8
  21163467.926 9 111214830.075 9  86660906.161 9  21163465.107 9  21163466.821 9
  22052716.428 9 115887879.002 9  90302254.113 9  22052713.483 9  22052715.540 9
  21376395.887 9 112333722.452 9  87532764.725 9  21376391.174 9  21376395.234 9
  21321079.327 9 112043033.002 9  87306252.393 9  21321076.909 9  21321078.343 9
  25381999.635 6 133383322.695 6
  23738446.168 7 124746381.447 7  97204955.648 6  23738442.744 6  23738445.119 6
  23508022.639 8 123535489.064 8  96261411.094 6  23508019.485 6  23508021.630 6
  20462119.613 9 107529210.894 9  83788994.118 9  20462113.916 9  20462118.197 9
  24670375.951 7 129643714.483 7 101021063.757 5  24670372.117 5  24670373.852 5
 09  6 30  1 21  0.0000000  0 10G22G 3G 6G11G32G 8G14G20G19G28
  23446826.573 8 123213944.383 8  96010856.963 7  23446821.257 7  23446825.492 7
  21175817.302 9 111279727.108 9  86711475.270 9  21175814.580 9  21175816.313 9
  22065775.909 9 115956506.496 9  90355730.077 9  22065772.800 9  22065774.996 9
  21366356.992 9 112280968.598 9  87491657.836 9  21366352.798 9  21366356.439 9
  21306930.584 9 111968679.064 9  87248314.253 9  21306927.780 9  21306929.561 9
  25391394.394 6 133432703.678 6
  23731555.794 7 124710171.321 7  97176739.969 6  23731551.843 6  23731554.482 6
  23487680.366 8 123428586.150 8  96178110.137 6  23487675.949 6  23487678.602 6
  20463587.991 9 107536927.381 9  83795006.968 9  20463582.475 9  20463586.567 9
  24654340.319 7 129559449.515 7 100955402.759 5  24654337.016 5  24654338.959 5
 09  6 30  1 21 30.0000000  0 10G22G 3G 6G11G32G 8G14G20G19G28
  23463839.043 8 123303347.016 8  96080521.358 7  23463833.804 7  23463838.343 7
  21188233.752 9 111344976.630 9  86762319.047 9  21188231.194 9  21188232.816 9
  22078892.720 9 116025436.633 9  90409441.868 9  22078889.879 9  22078891.892 9
  21356359.194 9 112228430.194 9  87450718.832 9  21356354.819 9  21356358.889 9
  21292863.232 9 111894754.368 9  87190710.574 9  21292859.951 9  21292861.871 9
  25400856.615 6 133482414.214 6
  23724749.062 7 124674404.989 7  97148870.111 6  23724746.182 6  23724748.315 6
  23467371.021 8 123321859.597 8  96094946.625 6  23467366.863 6  23467369.075 6
  20465125.409 9 107545006.510 9  83801302.396 9  20465119.742 9  20465124.069 9
  24638363.202 7 129475487.952 7 100889978.216 5  24638359.229 5  24638361.752 5
 09  6 30  1 22  0.0000000  0 10G22G 3G 6G11G32G 8G14G20G19G28
  23480895.692 8 123392981.392 8  96150366.325 7  23480890.330 7  23480894.627 7
  21200717.443 9 111410578.024 9  86813437.012 9  21200714.508 9  21200716.221 9
  22092067.104 9 116094668.637 9  90463388.867 9  22092064.412 9  22092066.296 9
  21346402.536 9 112176107.720 9  87409948.092 9  21346398.386 9  21346401.875 9
  21278877.688 9 111821260.792 9  87133442.854 9  21278874.864 9  21278876.226 9
  25410378.035 6 133532451.271 6
  23718027.968 7 124639084.732 7  97121347.847 7  23718025.129 7  23718026.896 7
  23447095.266 8 123215311.567 8  96011922.204 6  23447091.673 6  23447094.579 6
  20466732.164 9 107553449.434 9  83807881.304 9  20466726.298 9  20466730.706 9
  24622444.781 7 129391832.349 7 100824792.076 6  24622440.097 6  24622443.329 6
 09  6 30  1 22 30.0000000  0 10G22G 3G 6G11G32G 8G14G20G19G28
  23497996.342 8 123482844.806 8  96220389.749 7  23497991.107 7  23497994.967 7
  21213267.941 9 111476530.617 9  86864828.643 9  21213265.073 9  21213266.961 9
  22105298.865 9 116164202.006 9  90517570.694 9  22105296.133 9  22105298.203 9
  21336487.018 9 112124001.328 9  87369345.728 9  21336482.547 9  21336486.206 9
  21264974.695 9 111748200.068 9  87076512.446 9  21264971.877 9  21264973.450 9
  25419961.684 6 133582812.174 6
  23711392.444 7 124604212.985 7  97094175.055 6  23711389.088 6  23711391.270 6
  23426854.130 8 123108944.257 8  95929038.627 6  23426850.920 6  23426852.922 6
  20468408.119 9 107562256.644 9  83814744.066 9  20468402.216 9  20468406.587 9
  24606583.708 7 129308484.854 7 100759845.972 6  24606579.987 6  24606582.900 6
 09  6 30  1 23  0.0000000  0 10G22G 3G 6G11G32G 8G14G20G19G28
  23515140.024 8 123572934.944 8  96290589.855 7  23515135.058 7  23515138.829 7
  21225884.788 9 111542833.521 9  86916493.240 9  21225881.877 9  21225884.032 9
  22118587.832 9 116234036.344 9  90571987.052 9  22118585.331 9  22118587.085 9
  21326612.763 9 112072111.226 9  87328911.880 9  21326608.098 9  21326611.717 9
  21251154.506 9 111675573.959 9  87019920.689 9  21251151.534 9  21251152.913 9
  25429605.480 6 133633493.944 6
  23704841.792 7 124569791.579 7  97067353.195 6  23704839.064 6  23704840.902 6
  23406647.836 8 123002759.700 8  95846297.419 6  23406644.156 6  23406646.715 6
  20470153.610 9 107571429.212 9  83821891.522 9  20470147.954 9  20470152.089 9
  24590782.587 7 129225447.838 7 100695141.800 6  24590778.450 6  24590781.617 6
 09  6 30  1 23 30.0000000  0 10G22G 3G 6G11G32G 8G14G20G19G28
  23532326.620 8 123663249.450 8  96360964.798 7  23532320.911 7  23532325.601 7
  21238568.412 9 111609485.697 9  86968429.997 9  21238565.622 9  21238567.399 9
  22131933.905 9 116304170.785 9  90626637.250 9  22131931.303 9  22131932.982 9
  21316779.724 9 112020437.761 9  87288646.839 9  21316775.325 9  21316778.786 9
  21237417.134 9 111603384.366 9  86963669.077 9  21237414.410 9  21237415.889 9
  25439310.837 6 133684493.950 6
  23698378.038 7 124535822.471 7  97040883.776 6  23698375.329 6  23698376.757 6
  23386476.653 8 122896760.202 8  95763700.421 7  23386472.820 7  23386476.264 7
  20471968.573 9 107580967.971 9  83829324.326 9  20471962.779 9  20471967.198 9
  24575040.578 7 129142723.980 7 100630681.685 6  24575037.122 6  24575039.552 6
 09  6 30  1 24  0.0000000  0 10G22G 3G 6G11G32G 8G14G20G19G28
  23549554.442 8 123753785.608 8  96431512.455 7  23549549.518 7  23549554.068 7
  21251318.206 9 111676486.330 9  87020638.270 9  21251315.261 9  21251317.132 9
  22145337.109 9 116374604.840 9  90681520.920 9  22145334.312 9  22145336.261 9
  21306987.742 9 111968981.353 9  87248550.929 9  21306983.440 9  21306987.240 9
  21223763.521 9 111531632.974 9  86907758.913 9  21223760.470 9  21223762.320 9
  25449076.636 5 133735809.400 5
  23692000.071 8 124502307.594 8  97014768.303 7  23691997.724 7  23691999.478 7
  23366341.486 8 122790947.578 8  95681249.026 6  23366336.537 6  23366340.396 6
  20473853.520 9 107590873.683 9  83837043.062 9  20473848.005 9  20473852.101 9
  24559359.427 7 129060315.201 7 100566467.066 6  24559354.306 6  24559357.635 6
 09  6 30  1 24 30.0000000  0 10G22G 3G 6G11G32G 8G14G20G19G28
  23566824.850 8 123844541.655 8  96502231.448 7  23566819.219 7  23566824.436 7
  21264134.064 9 111743834.942 9  87073117.704 9  21264131.365 9  21264133.367 9
  22158797.468 9 116445337.999 9  90736637.661 9  22158794.513 9  22158796.549 9
  21297237.166 9 111917742.166 9  87208624.285 9  21297232.937 9  21297236.626 9
  21210193.157 9 111460321.631 9  86852191.676 9  21210190.600 9  21210192.114 9
  25458902.995 7 133787438.83017
  23685709.886 8 124469249.063 8  96989008.414 6  23685706.313 6  23685708.947 6
  23346241.844 8 122685323.979 8  95598944.925 6  23346237.697 6  23346240.917 6
  20475808.459 9 107601146.889 9  83845048.148 9  20475802.827 9  20475806.970 9
  24543737.845 7 128978224.230 7 100502500.079 6  24543733.038 6  24543736.206 6
 09  6 30  1 25  0.0000000  0 10G22G 3G 6G11G32G 8G14G20G19G28
  23584136.444 8 123935514.929 8  96573119.718 7  23584131.388 7  23584135.994 7
  21277016.129 9 111811530.463 9  87125867.459 9  21277013.304 9  21277015.095 9
  22172314.118 9 116516369.524 9  90791986.899 9  22172311.348 9  22172313.280 9
  21287528.224 9 111866720.404 9  87168867.071 9  21287524.041 9  21287527.437 9
  21196707.126 9 111389451.975 9  86796968.597 9  21196704.057 9  21196706.062 9
  25468784.330 6 133839377.024 6
  23679505.991 8 124436648.900 8  96963605.698 7  23679502.669 7  23679505.247 7
  23326178.540 8 122579891.523 8  95516789.789 6  23326174.926 6  23326177.984 6
  20477833.681 9 107611788.536 9  83853340.328 9  20477828.020 9  20477832.177 9
  24528177.472 7 128896453.451 7 100438782.595 6  24528172.917 6  24528175.994 6
 09  6 30  1 25 30.0000000  0 10G22G 3G 6G11G32G 8G14G20G19G28
  23601488.946 8 124026702.831 8  96644175.222 7  23601484.218 7  23601488.166 7
  21289964.113 9 111879572.074 9  87178886.882 9  21289961.035 9  21289962.916 9
  22185887.631 9 116587698.733 9  90847568.092 9  22185885.054 9  22185886.813 9
  21277860.375 9 111815916.107 9  87129279.326 9  21277856.376 9  21277859.837 9
  21183305.408 9 111319025.792 9  86742091.071 9  21183302.204 9  21183304.374 9
  25478725.939 6 133891621.945 6
  23673389.925 8 124404509.031 8  96938561.650 6  23673386.600 6  23673389.416 6
  23306152.240 8 122474652.289 8  95434785.179 6  23306148.512 6  23306151.253 6
  20479928.897 9 107622799.094 9  83861919.977 9  20479923.422 9  20479927.475 9
  24512677.808 7 128815004.913 7 100375316.192 6  24512673.668 6  24512676.833 6
 09  6 30  1 26  0.0000000  0 10G22G 3G 6G11G32G 8G14G20G19G28
  23618882.221 8 124118103.271 8  96715396.314 7  23618876.955 7  23618880.871 7
  21302977.745 9 111947959.036 9  87232175.413 9  21302975.056 9  21302976.896 9
  22199517.988 9 116659325.103 9  90903380.843 9  22199514.961 9  22199516.936 9
  21268234.076 9 111765330.309 9  87089861.835 9  21268230.256 9  21268233.395 9
  21169988.671 9 111249044.822 9  86687560.433 9  21169985.219 9  21169987.369 9
  25488725.195 5 133944171.305 5
  23667361.867 8 124372831.867 8  96913878.153 6  23667358.610 6  23667361.434 6
  23286162.771 8 122369608.659 8  95352932.990 6  23286159.427 6  23286161.986 6
  20482094.761 9 107634180.027 9  83870788.233 9  20482089.072 9  20482093.196 9
  24497240.037 7 128733881.342 7 100312103.023 6  24497236.620 6  24497239.512 6
 09  6 30  1 26 30.0000000  0 10G22G 3G 6G11G32G 8G14G20G19G28
  23636314.929 8 124209713.606 8  96786781.003 7  23636310.299 7  23636314.271 7
  21316056.810 9 112016690.309 9  87285732.243 9  21316054.041 9  21316055.966 9
  22213204.379 9 116731247.812 9  90959424.518 9  22213201.181 9  22213203.360 9
  21258649.679 9 111714962.776 9  87050614.411 9  21258645.144 9  21258648.838 9
  21156756.701 9 111179510.688 9  86633377.956 9  21156753.663 9  21156755.467 9
  25498784.842 7 133997021.888 7
  23661422.061 8 124341619.139 8  96889556.552 6  23661418.909 6  23661421.694 6
  23266211.599 8 122264762.536 8  95271234.745 7  23266208.027 7  23266210.493 7
  20484330.913 9 107645932.261 9  83879945.821 9  20484325.339 9  20484329.539 9
  24481865.643 7 128653085.450 7 100249145.185 5  24481861.965 5  24481865.037 5
 09  6 30  1 27  0.0000000  0 10G22G 3G 6G11G32G 8G14G20G19G28
  23653787.220 8 124301531.511 8  96858327.453 7  23653782.862 7  23653786.614 7
  21329201.300 9 112085764.770 9  87339556.497 9  21329198.283 9  21329200.288 9
  22226947.028 9 116803466.255 9  91015698.618 9  22226944.243 9  22226945.929 9
  21249106.589 9 111664813.815 9  87011537.305 9  21249102.245 9  21249105.744 9
  21143610.249 9 111110425.092 9  86579545.011 9  21143607.166 9  21143608.995 9
  25508894.879 5 134050170.746 5
  23655570.782 8 124310872.602 8  96865598.206 6  23655568.160 6  23655570.969 6
  23246298.068 8 122160115.724 8  95189691.784 7  23246293.840 7  23246296.886 7
  20486637.874 9 107658055.736 9  83889392.696 9  20486632.230 9  20486636.413 9
  24466553.036 7 128572618.773 7 100186443.894 6  24466549.487 6  24466552.303 6
 09  6 30  1 27 30.0000000  0  9G22G 3G 6G11G32G14G20G19G28
  23671298.362 8 124393554.750 8  96930033.876 7  23671293.766 7  23671297.720 7
  21342411.140 9 112155181.848 9  87393647.724 9  21342408.144 9  21342409.835 9
  22240745.756 9 116875979.636 9  91072202.539 9  22240742.928 9  22240744.952 9
  21239605.013 9 111614884.013 9  86972630.978 9  21239600.801 9  21239604.339 9
  21130549.252 9 111041789.724 9  86526062.900 9  21130546.467 9  21130548.473 9
  23649809.106 8 124280594.015 8  96842004.536 6  23649806.105 6  23649808.711 6
  23226422.782 8 122055670.406 8  95108305.801 7  23226418.370 7  23226421.307 7
  20489015.796 9 107670551.549 9  83899129.696 9  20489010.332 9  20489014.299 9
  24451304.610 8 128492484.062 8 100124001.273 6  24451300.396 6  24451302.682 6
 09  6 30  1 28  0.0000000  0 10G22G 8G 3G 6G11G32G14G20G19G28
  23688848.977 8 124485781.117 8  97001898.553 7  23688843.450 7  23688847.412 7
  25529292.738 6 134157342.16016
  21355685.681 9 112224940.689 9  87448005.253 9  21355682.587 9  21355684.779 9
  22254600.877 9 116948787.531 9  91128935.954 9  22254597.831 9  22254599.951 9
  21230145.783 9 111565173.356 9  86933895.413 9  21230140.871 9  21230144.741 9
  21117574.265 9 110973606.150 9  86472932.823 9  21117571.537 9  21117573.450 9
  23644137.063 8 124250785.435 8  96818777.078 6  23644133.236 6  23644136.297 6
  23206585.930 8 121951428.274 8  95027078.145 7  23206582.069 7  23206584.505 7
  20491464.681 9 107683420.275 9  83909157.273 9  20491459.139 9  20491463.120 9
  24436118.813 8 128412683.760 8 100061819.208 6  24436114.836 6  24436117.421 6
 09  6 30  1 28 30.0000000  0 10G22G 8G 3G 6G11G32G14G20G19G28
  23706437.015 8 124578207.614 8  97073919.194 7  23706431.998 7  23706435.466 7
  25539568.167 6 134211374.18816
  21369025.016 9 112295040.336 9  87502628.336 9  21369022.054 9  21369023.851 9
  22268511.626 9 117021889.058 9  91185898.173 9  22268508.381 9  22268510.676 9
  21220727.716 9 111515681.843 9  86895330.598 9  21220723.024 9  21220726.779 9
  21104685.587 9 110905876.135 9  86420156.185 9  21104682.971 9  21104684.401 9
  23638554.497 8 124221448.443 8  96795917.069 6  23638550.416 6  23638553.691 6
  23186788.407 8 121847392.205 8  94946011.075 7  23186785.022 7  23186787.003 7
  20493984.642 9 107696662.614 9  83919475.975 9  20493978.981 9  20493983.102 9
  24420997.388 7 128333219.741 7  99999899.195 6  24420993.267 6  24420995.518 6
 09  6 30  1 29  0.0000000  0 10G22G 8G 3G 6G11G32G14G20G19G28
  23724062.728 8 124670832.175 8  97146094.196 7  23724057.967 7  23724061.899 7
  25549909.667 6 134265688.436 6
  21382429.228 9 112365480.086 9  87557516.444 9  21382426.647 9  21382428.311 9
  22282477.842 9 117095283.544 9  91243088.671 9  22282475.059 9  22282477.149 9
  21211351.571 9 111466410.092 9  86856937.021 9  21211347.047 9  21211350.478 9
  21091883.609 9 110838601.126 9  86367734.122 9  21091881.257 9  21091882.423 9
  23633062.257 8 124192585.311 8  96773426.344 6  23633058.020 6  23633061.180 6
  23167030.864 8 121743563.740 8  94865105.785 7  23167027.048 7  23167029.353 7
  20496575.882 9 107710279.383 9  83930086.447 9  20496570.136 9  20496574.453 9
  24405939.828 7 128254094.706 7  99938243.315 6  24405936.764 6  24405939.054 6
 09  6 30  1 29 30.0000000  0 10G22G 8G 3G 6G11G32G14G20G19G28
  23741725.901 8 124763652.818 8  97218421.974 7  23741721.058 7  23741725.184 7
  25560299.150 6 134320286.951 6
  21395898.164 9 112436258.415 9  87612668.387 9  21395895.138 9  21395896.654 9
  22296500.094 9 117168970.239 9  91300506.869 9  22296497.174 9  22296499.140 9
  21202017.453 9 111417358.494 9  86818714.998 9  21202013.018 9  21202016.650 9
  21079168.679 9 110771782.895 9  86315667.990 9  21079166.107 9  21079167.516 9
  23627660.362 8 124164198.005 8  96751306.377 6  23627656.558 6  23627659.320 6
  23147313.365 8 121639945.169 8  94784364.031 7  23147309.315 7  23147311.657 7
  20499238.547 9 107724271.621 9  83940989.484 9  20499232.770 9  20499237.104 9
  24390947.455 7 128175311.021 7  99876853.452 6  24390944.455 6  24390947.299 6
 09  6 30  1 30  0.0000000  0  9G22G 3G 6G11G32G14G20G19G28
  23759426.225 8 124856666.680 8  97290900.319 7  23759420.882 7  23759425.396 7
  21409430.873 9 112507374.979 9  87668083.898 9  21409428.229 9  21409430.154 9
  22310577.618 9 117242948.542 9  91358152.288 9  22310575.205 9  22310576.951 9
  21192724.993 9 111368527.362 9  86780664.766 9  21192720.766 9  21192724.288 9
  21066540.711 9 110705422.925 9  86263958.949 9  21066537.988 9  21066539.429 9
  23622349.242 8 124136288.262 8  96729558.550 6  23622345.325 6  23622348.070 6
  23127634.971 8 121536538.454 8  94703787.362 7  23127631.461 7  23127634.085 7
  20501972.711 9 107738640.078 9  83952185.679 9  20501966.817 9  20501971.224 9
  24376021.974 7 128096871.195 7  99815731.504 6  24376017.587 6  24376020.603 6
 09  6 30  1 30 30.0000000  0  9G22G 3G 6G11G32G14G20G19G28
  23777162.831 8 124949871.506 8  97363527.463 7  23777156.835 7  23777162.085 7
  21423028.142 9 112578828.617 9  87723762.056 9  21423025.413 9  21423027.264 9
  22324710.856 9 117317217.661 9  91416024.330 9  22324707.790 9  22324709.988 9
  21183474.808 9 111319916.804 9  86742786.428 9  21183470.533 9  21183474.143 9
  21054000.379 9 110639522.737 9  86212608.166 9  21053997.258 9  21053999.106 9
  23617129.402 8 124108857.536 8  96708183.960 6  23617125.397 6  23617128.166 6
  23107998.058 8 121433345.545 8  94623377.316 7  23107994.513 7  23107997.067 7
  20504778.737 9 107753385.352 9  83963675.494 9  20504772.903 9  20504777.024 9
  24361160.830 7 128018777.295 7  99754879.092 5  24361155.631 5  24361160.515 5
 09  6 30  1 31  0.0000000  0  9G22G 3G 6G11G32G14G20G19G28
  23794934.317 8 125043265.266 8  97436301.824 7  23794928.848 7  23794933.957 7
  21436689.362 9 112650618.446 9  87779702.180 9  21436686.388 9  21436688.205 9
  22338898.736 9 117391776.786 9  91474122.358 8  22338895.838 8  22338898.023 8
  21174266.596 9 111271527.539 9  86705080.523 9  21174262.251 9  21174266.137 9
  21041547.611 9 110574083.921 9  86161616.892 9  21041544.841 9  21041546.617 9
  23612000.811 8 124081907.898 8  96687184.245 6  23611996.502 6  23611999.819 6
  23088402.280 8 121330368.477 8  94543135.469 7  23088399.031 7  23088401.050 7
  20507656.207 9 107768507.820 9  83975459.227 9  20507650.654 9  20507654.823 9
  24346366.092 7 127941031.708 7  99694298.106 6  24346361.525 6  24346364.812 6
 09  6 30  1 31 30.0000000  0  9G22G 3G 6G11G32G14G20G19G28
  23812742.560 8 125136845.320 8  97509221.349 7  23812736.684 7  23812742.041 7
  21450414.150 9 112722743.390 9  87835903.434 9  21450411.358 9  21450413.199 9
  22353141.868 9 117466625.274 9  91532445.848 9  22353139.018 9  22353141.166 9
  21165100.390 9 111223359.416 9  86667546.934 9  21165095.998 9  21165099.535 9
  21029183.182 9 110509108.042 9  86110986.352 9  21029180.680 9  21029182.074 9
  23606964.618 8 124055441.326 8  96666560.941 6  23606959.948 6  23606963.345 6
  23068847.438 8 121227609.468 8  94463063.538 7  23068844.076 7  23068846.432 7
  20510606.012 9 107784008.075 9  83987537.343 9  20510600.214 9  20510604.597 9
  24331638.640 7 127863636.623 7  99633990.262 6  24331634.864 6  24331637.102 6
 09  6 30  1 32  0.0000000  0  9G22G 3G 6G11G32G14G20G19G28
  23830584.782 8 125230609.607 8  97582284.436 7  23830579.205 7  23830584.358 7
  21464202.948 9 112795202.492 9  87892365.075 9  21464199.924 9  21464201.639 9
  22367440.097 9 117541762.206 9  91590994.099 9  22367437.158 9  22367439.242 9
  21155976.510 9 111175413.003 9  86630186.092 9  21155972.257 9  21155975.703 9
  21016907.151 9 110444596.584 9  86060717.708 9  21016904.555 9  21016905.612 9
  23602020.621 8 124029459.375 8  96646315.273 7  23602016.358 7  23602019.099 7
  23049335.332 8 121125070.517 8  94383163.101 7  23049331.829 7  23049334.007 7
  20513627.619 9 107799887.455 9  83999910.880 9  20513622.109 9  20513626.304 9
  24316978.286 8 127786594.401 8  99573957.357 6  24316974.792 6  24316977.231 6
 09  6 30  1 32 30.0000000  0  9G22G 3G 6G11G32G14G20G19G28
  23848462.028 8 125324555.494 8  97655489.024 7  23848457.038 7  23848462.148 7
  21478054.803 9 112867994.591 9  87949086.185 9  21478051.651 9  21478053.454 9
  22381792.910 9 117617186.939 9  91649766.602 9  22381790.148 9  22381792.000 9
  21146894.914 9 111127688.614 9  86592998.256 9  21146890.662 9  21146894.272 9
  21004719.708 9 110380551.027 9  86010812.107 9  21004716.731 9  21004718.463 9
  23597168.818 8 124003963.262 8  96626448.181 6  23597164.924 6  23597167.911 6
  23029865.183 8 121022753.269 8  94303435.396 7  23029861.289 7  23029863.539 7
  20516721.479 9 107816145.967 9  84012579.836 9  20516715.925 9  20516720.135 9
  24302385.148 8 127709907.373 8  99514201.227 6  24302381.922 6  24302384.781 6
 09  6 30  1 33  0.0000000  0  9G22G 3G 6G11G32G14G20G19G28
  23866373.924 8 125418680.728 8  97728833.364 7  23866368.697 7  23866373.560 7
  21491969.762 9 112941118.775 9  88006066.061 9  21491966.937 9  21491968.881 9
  22396200.408 9 117692898.708 9  91708762.767 8  22396197.568 8  22396199.481 8
  21137855.456 9 111080186.061 9  86555983.272 9  21137851.096 9  21137854.739 9
  20992621.201 9 110316972.742 9  85961270.598 9  20992618.071 9  20992619.924 9
  23592409.552 8 123978955.079 8  96606961.286 6  23592406.209 6  23592408.345 6
  23010437.411 8 120920660.041 8  94223882.242 7  23010433.642 7  23010436.126 7
  20519887.633 9 107832784.314 9  84025544.763 9  20519882.020 9  20519886.338 9
  24287859.442 8 127633577.608 8  99454723.491 6  24287856.762 6  24287859.499 6
 09  6 30  1 33 30.0000000  0  9G22G 3G 6G11G32G14G20G19G28
  23884318.482 8 125512982.672 8  97802315.401 7  23884313.607 7  23884318.484 7
  21505947.969 9 113014574.192 9  88063304.050 9  21505944.895 9  21505946.953 9
  22410662.223 9 117768896.513 9  91767981.832 8  22410659.426 8  22410661.519 8
  21128858.495 9 111032905.965 9  86519141.651 9  21128854.033 9  21128857.699 9
  20980611.846 9 110253863.297 9  85912094.408 9  20980608.908 9  20980610.575 9
  23587744.185 8 123954436.359 8  96587855.804 6  23587740.417 6  23587743.226 6
  22991052.331 8 120818792.963 8  94144505.292 7  22991048.868 7  22991051.622 7
  20523126.505 9 107849803.607 9  84038806.529 9  20523120.639 9  20523124.979 9
  24273403.019 8 127557607.469 8  99395525.986 6  24273400.384 6  24273401.853 6
 09  6 30  1 34  0.0000000  0  9G22G 3G 6G11G32G14G20G19G28
  23902297.427 8 125607459.280 8  97875933.525 7  23902291.750 7  23902296.756 7
  21519988.848 9 113088359.591 9  88120799.164 9  21519985.943 9  21519987.959 9
  22425178.395 9 117845179.702 9  91827423.275 8  22425175.570 8  22425177.592 8
  21119903.583 9 110985848.632 9  86482473.613 9  21119899.280 9  21119902.893 9
  20968692.158 9 110191224.049 9  85863284.607 9  20968689.065 9  20968690.985 9
  23583171.792 8 123930408.822 8  96569133.041 7  23583167.842 7  23583170.704 7
  22971711.490 8 120717153.564 8  94065305.748 7  22971708.001 7  22971710.463 7
  20526437.588 9 107867204.114 9  84052365.348 9  20526431.961 9  20526436.188 9
  24259015.230 8 127481998.861 8  99336610.172 6  24259011.950 6  24259013.866 6
 09  6 30  1 34 30.0000000  0  9G22G 3G 6G11G32G14G20G19G28
  23920308.101 8 125702108.281 8  97949685.994 6  23920302.848 6  23920307.559 6
  21534092.423 9 113162474.184 9  88178550.795 9  21534089.572 9  21534091.518 9
  22439748.664 9 117921747.491 9  91887086.474 8  22439746.196 8  22439748.029 8
  21110991.395 9 110939014.276 9  86445979.321 9  21110986.979 9  21110990.429 9
  20956861.806 9 110129056.471 9  85814842.336 9  20956858.938 9  20956860.624 9
  23578692.972 8 123906874.377 8  96550794.531 6  23578689.202 6  23578691.948 6
  22952413.711 8 120615744.555 8  93986285.743 7  22952410.675 7  22952412.689 7
  20529821.574 9 107884986.398 9  84066221.669 9  20529815.933 9  20529820.099 9
  24244696.937 8 127406754.782 8  99277978.398 6  24244692.553 6  24244695.907 6
 09  6 30  1 35  0.0000000  0  9G22G 3G 6G11G32G14G20G19G28
  23938351.674 8 125796927.092 8  98023570.772 6  23938346.071 6  23938351.088 6
  21548258.437 9 113236916.897 9  88236558.102 9  21548255.582 9  21548257.432 9
  22454373.013 9 117998599.022 9  91946970.764 8  22454370.533 8  22454372.154 8
  21102121.598 9 110892403.361 9  86409659.150 9  21102117.221 9  21102120.683 9
  20945121.704 9 110067361.997 9  85766768.710 9  20945118.870 9  20945120.362 9
  23574308.902 8 123883834.305 8  96532841.228 7  23574305.178 7  23574307.560 7
  22933160.402 8 120514567.735 8  93907446.674 7  22933157.139 7  22933158.756 7
  20533278.295 9 107903151.312 9  84080376.143 9  20533272.563 9  20533276.983 9
  24230448.122 8 127331877.241 8  99219632.281 6  24230442.898 6  24230447.256 6
 09  6 30  1 35 30.0000000  0  9G22G 3G 6G11G32G14G20G19G28
  23956427.214 8 125891913.778 8  98097586.389 6  23956422.008 6  23956426.242 6
  21562486.844 9 113311686.729 9  88294820.301 9  21562483.626 9  21562485.635 9
  22469051.508 9 118075733.514 9  92007075.550 8  22469048.654 8  22469050.330 8
  21093294.471 9 110846016.275 9  86373513.385 9  21093289.931 9  21093293.517 9
  20933471.963 9 110006141.900 9  85719064.730 9  20933468.985 9  20933470.642 9
  23570018.966 8 123861290.466 8  96515274.598 6  23570015.222 6  23570017.835 6
  22913951.502 8 120413624.768 8  93828789.854 7  22913948.142 7  22913949.391 7
  20536807.890 9 107921699.318 9  84094829.125 9  20536801.965 9  20536806.566 9
  24216269.452 8 127257368.540 8  99161573.542 6  24216264.201 6  24216268.739 6
 09  6 30  1 36  0.0000000  0  9G22G 3G 6G11G32G14G20G19G28
  23974533.533 8 125987065.790 8  98171730.829 6  23974528.517 6  23974533.055 6
  21576776.981 9 113386782.692 9  88353336.642 9  21576773.791 9  21576776.067 9
  22483783.225 9 118153150.126 9  92067400.172 8  22483780.544 8  22483782.259 8
  21084509.851 9 110799853.082 9  86337542.079 9  21084505.544 9  21084509.114 9
  20921912.789 9 109945397.630 9  85671731.536 9  20921909.808 9  20921911.307 9
  23565823.485 8 123839244.214 8  96498095.695 7  23565820.219 7  23565822.574 7
  22894787.536 8 120312917.520 8  93750316.704 7  22894784.160 7  22894785.475 7
  20540410.456 9 107940631.032 9  84109581.097 9  20540404.818 9  20540409.089 9
  24202161.912 8 127183230.719 8  99103803.819 6  24202156.898 6  24202161.617 6
 09  6 30  1 36 30.0000000  0  9G22G 3G 6G11G32G14G20G19G28
  23992671.992 7 126082380.846 7  98246002.288 6  23992666.442 6  23992670.515 6
  21591128.965 9 113462203.383 9  88412106.007 9  21591126.031 9  21591128.065 9
  22498568.754 9 118230847.679 9  92127943.711 8  22498565.866 8  22498567.758 8
  21075768.087 9 110753914.011 9  86301745.400 9  21075763.741 9  21075767.227 9
  20910444.214 9 109885130.476 9  85624770.130 9  20910441.508 9  20910443.074 9
  23561722.786 8 123817697.215 8  96481305.845 7  23561719.813 7  23561722.170 7
  22875668.870 8 120212448.204 8  93672028.927 7  22875665.437 7  22875667.074 7
  20544086.169 9 107959947.255 9  84124632.692 9  20544080.543 9  20544084.822 9
  24188124.319 8 127109465.954 8  99046324.788 6  24188119.755 6  24188124.458 6
 09  6 30  1 37  0.0000000  0  9G22G 3G 6G11G32G14G20G19G28
  24010839.521 8 126177856.597 8  98320398.934 6  24010835.143 6  24010839.178 6
  21605542.807 9 113537947.827 9  88471127.645 9  21605539.579 9  21605541.737 9
  22513407.710 9 118308825.838 9  92188705.914 8  22513404.911 8  22513406.408 8
  21067068.894 9 110708199.792 9  86266123.937 9  21067064.719 9  21067068.449 9
  20899066.695 9 109825341.836 9  85578181.586 9  20899063.900 9  20899065.653 9
  23557717.904 8 123796650.947 8  96464906.174 6  23557714.730 6  23557717.236 6
  22856595.603 8 120112218.909 8  93593928.165 7  22856592.483 7  22856594.265 7
  20547835.091 9 107979648.306 9  84139984.153 9  20547829.234 9  20547833.603 9
  24174158.719 8 127036076.261 8  98989138.013 6  24174154.389 6  24174157.940 6
 09  6 30  1 37 30.0000000  0  9G22G 3G 6G11G32G14G20G19G28
  24029038.224 8 126273490.708 8  98394919.004 6  24029033.643 6  24029037.700 6
  21620017.715 9 113614014.997 9  88530400.755 9  21620014.682 9  21620016.641 9
  22528299.618 9 118387083.522 9  92249685.922 8  22528296.898 8  22528298.626 8
  21058412.577 9 110662710.549 9  86230677.805 9  21058408.233 9  21058411.773 9
  20887780.752 9 109766033.018 9  85531966.922 9  20887777.938 9  20887779.363 9
  23553809.075 8 123776106.963 8  96448897.866 6  23553805.283 6  23553808.026 6
  22837569.091 8 120012231.522 8  93516015.890 7  22837565.223 7  22837567.911 7
  20551657.520 9 107999734.818 9  84155635.969 9  20551651.668 9  20551656.145 9
  24160264.635 8 126963064.193 8  98932245.472 6  24160261.546 6  24160264.473 6
 09  6 30  1 38  0.0000000  0  9G22G 3G 6G11G32G14G20G19G28
  24047266.686 8 126369281.023 8  98469560.813 6  24047262.125 6  24047266.556 6
  21634554.104 9 113690404.169 9  88589924.780 9  21634551.111 9  21634553.053 9
  22543244.405 9 118465619.756 9  92310882.982 8  22543241.771 8  22543243.690 8
  21049799.051 9 110617446.538 9  86195407.166 9  21049794.631 9  21049798.288 9
  20876586.124 9 109707205.220 9  85486127.075 9  20876583.059 9  20876585.005 9
  23549995.358 8 123756067.060 8  96433282.362 6  23549991.937 6  23549994.482 6
  22818588.369 8 119912487.896 8  93438293.581 7  22818584.831 7  22818587.463 7
  20555553.157 9 108020207.593 9  84171588.759 9  20555547.662 9  20555552.002 9
  24146444.079 8 126890432.187 8  98875649.088 6  24146440.299 6  24146443.208 6
 09  6 30  1 38 30.0000000  0  9G22G 3G 6G11G32G14G20G19G28
  24065524.493 8 126465225.179 8  98544322.500 6  24065519.837 6  24065523.985 6
  21649151.570 9 113767113.875 9  88649698.569 9  21649148.834 9  21649150.338 9
  22558242.076 8 118544433.660 8  92372296.410 8  22558239.411 8  22558241.387 8
  21041228.477 9 110572408.309 9  86160312.451 9  21041224.413 9  21041227.568 9
  20865483.162 9 109648859.764 9  85440663.068 9  20865480.528 9  20865482.014 9
  23546278.056 8 123736532.153 8  96418060.373 6  23546273.960 6  23546277.204 6
  22799654.514 8 119812990.001 8  93360762.751 7  22799651.009 7  22799653.216 7
  20559522.757 9 108041067.010 9  84187842.829 9  20559517.222 9  20559521.408 9
  24132695.176 8 126818182.076 8  98819350.324 6  24132691.679 6  24132694.055 6
 09  6 30  1 39  0.0000000  0  9G22G 3G 6G11G32G14G20G19G28
  24083811.402 8 126561320.981 8  98619202.329 6  24083805.958 6  24083811.059 6
  21663809.685 9 113844142.966 9  88709721.222 9  21663806.889 9  21663808.585 9
  22573292.807 9 118623524.412 9  92433925.565 8  22573289.820 8  22573291.858 8
  21032700.920 9 110527595.988 9  86125393.759 9  21032696.731 9  21032700.435 9
  20854472.734 9 109590997.853 9  85395575.851 9  20854469.823 9  20854471.261 9
  23542656.979 8 123717503.987 8  96403233.253 6  23542652.743 6  23542656.666 6
  22780768.067 8 119713739.894 8  93283425.007 7  22780764.514 7  22780767.007 7
  20563565.928 9 108062313.593 9  84204398.591 9  20563560.343 9  20563564.530 9
  24119019.496 8 126746316.029 8  98763350.817 6  24119015.839 6  24119018.465 6
 09  6 30  1 39 30.0000000  0  9G22G 3G 6G11G32G14G20G19G28
  24102125.847 8 126657566.226 8  98694198.610 6  24102120.605 6  24102125.774 6
  21678528.321 9 113921490.366 9  88769991.918 9  21678525.719 9  21678527.356 9
  22588395.480 8 118702891.111 8  92495769.736 8  22588392.760 8  22588394.718 8
  21024216.683 9 110483009.985 9  86090651.406 9  21024211.956 9  21024215.819 9
  20843554.045 9 109533620.786 9  85350866.426 9  20843551.287 9  20843553.049 9
  23539132.891 8 123698983.795 8  96388801.932 6  23539128.110 6  23539132.470 6
  22761928.961 9 119614739.496 9  93206281.849 8  22761925.454 8  22761928.313 8
  20567683.013 9 108083947.926 9  84221256.503 9  20567677.174 9  20567681.372 9
  24105417.086 8 126674836.266 8  98707652.301 6  24105413.172 6  24105416.338 6
 09  6 30  1 40  0.0000000  0  9G22G 3G 6G11G32G14G20G19G28
  24120468.754 8 126753958.408 8  98769309.371 7  24120463.534 7  24120468.446 7
  21693307.245 9 113999154.734 9  88830509.593 9  21693304.807 9  21693306.211 9
  22603550.616 8 118782532.715 8  92557828.110 8  22603548.370 8  22603549.717 8
  21015774.991 9 110438650.426 9  86056085.502 9  21015771.220 9  21015774.397 9
  20832728.125 9 109476729.711 9  85306535.696 9  20832725.305 9  20832727.100 9
  23535705.198 8 123680973.201 8  96374767.713 6  23535700.695 6  23535704.402 6
  22743138.005 9 119515990.870 9  93129334.862 8  22743134.094 8  22743137.031 8
  20571873.487 9 108105970.474 9  84238416.921 9  20571867.849 9  20571872.154 9
  24091889.110 8 126603745.223 8  98652256.688 6  24091885.585 6  24091887.935 6
 09  6 30  1 40 30.0000000  0  9G22G 3G 6G11G32G14G20G19G28
  24138838.972 8 126850495.201 8  98844532.845 7  24138834.613 7  24138838.526 7
  21708146.494 9 114077135.399 9  88891273.740 9  21708143.681 9  21708145.795 9
  22618758.440 8 118862448.528 8  92620100.164 8  22618756.009 8  22618757.093 8
  21007377.032 9 110394517.727 9  86021696.382 9  21007372.735 9  21007376.307 9
  20821994.722 9 109420325.893 9  85262584.662 9  20821992.006 9  20821993.663 9
  23532375.114 8 123663473.386 8  96361131.507 6  23532371.303 6  23532373.957 6
  22724394.675 8 119417495.443 8  93052585.165 8  22724390.758 8  22724393.493 8
  20576138.271 9 108128381.764 9  84255880.253 9  20576132.562 9  20576136.925 9
  24078435.472 8 126533044.710 8  98597165.394 6  24078430.787 6  24078434.228 6
 09  6 30  1 41  0.0000000  0  9G22G 3G 6G11G32G14G20G19G28
  24157236.659 8 126947174.441 8  98919867.337 7  24157232.210 7  24157236.155 7
  21723045.775 9 114155430.788 9  88952283.131 9  21723042.769 9  21723044.881 9
  22634017.840 9 118942637.411 9  92682584.994 8  22634015.174 8  22634016.909 8
  20999022.193 9 110350612.179 9  85987484.253 9  20999017.697 9  20999021.428 9
  20811354.447 9 109364410.508 9  85219014.249 9  20811351.953 9  20811353.377 9
  23529143.242 8 123646486.241 8  96347894.777 7  23529139.396 7  23529141.223 7
  22705699.859 8 119319255.658 8  92976034.717 8  22705696.512 8  22705698.853 8
  20580477.096 9 108151182.270 9  84273646.872 9  20580471.349 9  20580475.484 9
  24065056.091 8 126462736.898 8  98542380.086 6  24065051.374 6  24065055.018 6
 09  6 30  1 41 30.0000000  0  9G22G 3G 6G11G32G14G20G19G28
  24175660.912 8 127043993.783 8  98995310.993 7  24175656.107 7  24175660.218 7
  21738004.756 9 114234040.479 9  89013537.428 9  21738001.700 9  21738003.857 9
  22649329.161 9 119023098.503 9  92745281.949 8  22649326.328 8  22649328.183 8
  20990710.650 9 110306934.427 9  85953449.643 9  20990706.106 9  20990709.574 9
  20800807.393 9 109308984.774 9  85175825.403 9  20800804.684 9  20800806.066 9
  23526007.730 8 123630012.374 8  96335057.990 7  23526004.695 7  23526006.862 7
  22687054.668 8 119221273.162 8  92899684.733 8  22687051.141 8  22687053.035 8
  20584889.869 9 108174372.278 9  84291716.995 9  20584884.291 9  20584888.521 9
  24051752.131 8 126392824.070 8  98487902.567 6  24051747.592 6  24051750.994 6
 09  6 30  1 42  0.0000000  0  9G22G 3G 6G11G32G14G20G19G28
  24194111.157 8 127140951.146 8  99070862.195 7  24194106.094 7  24194110.320 7
  21753023.220 9 114312962.520 9  89075035.111 9  21753020.274 9  21753022.109 9
  22664692.068 8 119103830.873 8  92808190.301 8  22664688.931 8  22664691.038 8
  20982442.379 9 110263484.785 9  85919592.786 9  20982437.966 9  20982441.716 9
  20790353.296 9 109254049.647 9  85133018.860 9  20790350.535 9  20790352.042 9
  23522970.683 8 123614053.546 8  96322622.548 6  23522967.306 6  23522970.156 6
  22668458.161 8 119123549.916 8  92823536.754 8  22668454.885 8  22668457.200 8
  20589377.040 9 108197952.684 9  84310091.329 9  20589371.662 9  20589375.731 9
  24038523.842 8 126323308.279 8  98433734.431 6  24038519.781 6  24038522.819 6
 09  6 30  1 42 30.0000000  0  9G22G 3G 6G11G32G14G20G19G28
  24212587.650 8 127238044.314 8  99146519.222 6  24212581.693 6  24212586.570 6
  21768100.779 9 114392196.020 9  89136775.490 9  21768098.240 9  21768099.532 9
  22680106.188 8 119184833.582 8  92871309.307 8  22680103.046 8  22680105.607 8
  20974217.533 9 110220263.257 9  85885913.696 9  20974213.304 9  20974216.793 9
  20779993.255 9 109199606.454 9  85090595.653 9  20779990.211 9  20779992.184 9
  23520032.321 8 123598610.917 8  96310589.341 6  23520028.422 6  23520031.496 6
  22649912.185 8 119026087.992 8  92747592.389 8  22649908.818 8  22649910.909 8
  20593938.798 9 108221923.663 9  84328770.008 9  20593933.320 9  20593937.352 9
  24025371.379 8 126254191.482 8  98379877.174 6  24025367.629 6  24025370.511 6
 09  6 30  1 43  0.0000000  0  9G22G 3G 6G11G32G14G20G19G28
  24231088.905 8 127335271.140 8  99222280.409 6  24231083.063 6  24231088.085 6
  21783237.504 9 114471740.048 9  89198757.850 9  21783234.898 9  21783236.487 9
  22695572.210 8 119266105.493 8  92934638.070 8  22695568.706 8  22695571.143 8
  20966036.246 9 110177270.064 9  85852412.519 9  20966031.770 9  20966035.521 9
  20769726.549 9 109145656.032 9  85048556.406 9  20769723.853 9  20769725.499 9
  23517192.211 8 123583685.786 8  96298959.371 6  23517188.175 6  23517191.014 6
  22631415.731 8 118928889.172 8  92671853.025 8  22631412.400 8  22631414.663 8
  20598574.733 9 108246285.583 9  84347753.316 9  20598569.177 9  20598573.444 9
  24012295.227 8 126185475.791 8  98326332.467 6  24012291.098 6  24012294.111 6
 09  6 30  1 43 30.0000000  0  9G22G 3G 6G11G32G14G20G19G28
  24249615.403 7 127432628.720 7  99298143.459 6  24249609.597 6  24249614.360 6
  21798432.760 9 114551593.140 9  89260981.036 9  21798430.434 9  21798431.981 9
  22711088.318 8 119347645.876 8  92998176.036 8  22711085.710 8  22711087.552 8
  20957898.469 9 110134505.909 9  85819089.802 9  20957894.037 9  20957897.669 9
  20759554.304 9 109092199.493 9  85006901.978 9  20759551.453 9  20759552.976 9
  23514450.708 8 123569279.409 8  96287733.647 6  23514446.262 6  23514450.184 6
  22612969.912 8 118831955.100 8  92596319.966 8  22612966.232 8  22612968.625 8
  20603285.150 9 108271039.226 9  84367041.860 9  20603279.676 9  20603283.690 9
  23999295.560 8 126117163.513 8  98273102.118 6  23999292.026 6  23999294.517 6
 09  6 30  1 44  0.0000000  0  9G22G 3G 6G11G32G14G20G19G28
  24268165.792 7 127530115.495 7  99374107.184 6  24268161.130 6  24268165.358 6
  21813687.097 9 114631753.911 9  89323443.964 9  21813684.229 9  21813685.928 9
  22726655.805 8 119429453.481 8  93061922.216 8  22726653.123 8  22726654.710 8
  20949804.098 9 110091971.188 9  85785945.869 9  20949799.704 9  20949803.289 9
  20749475.992 9 109039238.068 9  84965633.341 9  20749473.261 9  20749474.820 9
  23511808.307 8 123555392.881 8  96276912.980 7  23511804.276 7  23511807.532 7
  22594574.635 8 118735287.983 8  92520994.968 8  22594571.525 8  22594573.271 8
  20608070.116 9 108296185.006 9  84386635.964 9  20608064.524 9  20608068.683 9
  23986373.720 8 126049256.749 8  98220187.743 6  23986370.161 6  23986372.731 6
 09  6 30  1 44 30.0000000  0  9G22G 3G 6G11G32G14G20G19G28
  24286741.029 7 127627728.914 7  99450169.558 6  24286736.362 6  24286741.110 6
  21828999.591 9 114712221.420 9  89386145.916 9  21828996.661 9  21828998.599 9
  22742273.821 8 119511527.542 8  93125876.020 8  22742271.377 8  22742273.276 8
  20941754.129 9 110049666.000 9  85752980.798 9  20941749.459 9  20941753.002 9
  20739492.113 9 108986772.704 9  84924751.246 9  20739489.198 9  20739491.186 9
  23509264.790 8 123542027.763 8  96266498.608 7  23509261.203 7  23509264.269 7
  22576230.722 8 118638889.449 8  92445879.245 8  22576227.188 8  22576229.319 8
  20612929.872 9 108321723.341 9  84406535.951 9  20612924.226 9  20612928.339 9
  23973529.341 8 125981757.507 8  98167590.929 6  23973525.173 6  23973528.351 6
 09  6 30  1 45  0.0000000  0  9G22G 3G 6G11G32G14G20G19G28
  24305340.448 7 127725467.039 7  99526329.138 6  24305335.543 6  24305339.216 6
  21844370.180 9 114792994.547 9  89449086.006 9  21844367.070 9  21844369.214 9
  22757942.654 8 119593866.893 8  93190036.537 8  22757939.983 8  22757941.718 8
  20933747.313 9 110007590.823 9  85720194.932 9  20933742.702 9  20933746.552 9
  20729603.117 9 108934804.465 9  84884256.525 9  20729600.139 9  20729601.847 9
  23506821.287 8 123529184.827 8  96256491.126 7  23506817.141 7  23506820.696 7
  22557938.177 9 118542761.651 9  92370974.481 8  22557934.901 8  22557936.938 8
  20617864.400 9 108347654.297 9  84426741.879 9  20617858.994 9  20617863.117 9
  23960762.292 8 125914667.765 8  98115313.200 6  23960758.743 6  23960761.375 6
 09  6 30  1 45 30.0000000  0  9G22G 3G 6G11G32G14G20G19G28
  24323962.530 8 127823327.486 8  99602584.016 6  24323958.056 6  24323962.122 6
  21859798.412 9 114874071.647 9  89512262.965 9  21859795.745 9  21859797.391 9
  22773661.613 8 119676470.592 8  93254403.026 8  22773658.814 8  22773660.780 8
  20925784.503 9 109965745.911 9  85687588.488 9  20925780.109 9  20925783.772 9
  20719808.598 9 108883334.282 9  84844149.893 9  20719805.759 9  20719807.301 9
  23504476.516 8 123516865.478 8  96246891.642 6  23504472.835 6  23504476.140 6
  22539697.484 9 118446906.326 9  92296282.048 8  22539693.771 8  22539696.558 8
  20622873.967 9 108373978.488 9  84447254.229 9  20622868.182 9  20622872.452 9
  23948073.463 8 125847989.604 8  98063356.211 6  23948070.413 6  23948072.545 6
 09  6 30  1 46  0.0000000  0  9G22G 3G 6G11G32G14G20G19G28
  24342608.219 8 127921307.789 8  99678932.289 6  24342603.286 6  24342607.050 6
  21875284.748 9 114955451.731 9  89575676.009 9  21875281.751 9  21875283.690 9
  22789430.788 8 119759337.520 8  93318974.637 8  22789427.966 8  22789430.150 8
  20917865.593 9 109924131.669 9  85655161.784 9  20917861.382 9  20917864.835 9
  20710109.014 9 108832363.163 9  84804432.151 9  20710106.200 9  20710107.772 9
  23502232.261 8 123505070.824 8  96237701.021 7  23502228.317 7  23502231.197 7
  22521508.949 9 118351325.236 9  92221803.303 8  22521505.104 8  22521508.301 8
  20627958.115 9 108400696.443 9  84468073.409 9  20627952.465 9  20627956.743 9
  23935463.727 8 125781725.032 8  98011721.470 6  23935460.351 6  23935462.514 6
 09  6 30  1 46 30.0000000  0  9G22G 3G 6G11G32G14G20G19G28
  24361275.185 8 128019406.207 8  99755372.639 7  24361270.969 7  24361274.788 7
  21890828.094 9 115037133.472 9  89639324.112 9  21890825.139 9  21890827.157 9
  22805249.843 8 119842466.737 8  93383750.611 8  22805246.829 8  22805249.171 8
  20909990.654 9 109882748.536 9  85622915.175 9  20909986.393 9  20909989.819 9
  20700504.660 9 108781892.078 9  84765104.030 9  20700501.752 9  20700503.451 9
  23500087.461 8 123493801.770 8  96228919.960 7  23500083.755 7  23500087.045 7
  22503373.046 9 118256020.339 9  92147539.748 8  22503369.215 8  22503372.340 8
  20633117.270 9 108427808.322 9  84489199.545 9  20633111.761 9  20633115.930 9
  23922933.165 8 125715876.198 8  97960410.695 6  23922929.356 6  23922932.012 6
 09  6 30  1 47  0.0000000  0  9G22G 3G 6G11G32G14G20G19G28
  24379964.712 8 128117620.348 8  99831903.148 6  24379960.173 6  24379964.408 6
  21906429.013 9 115119115.991 9  89703206.588 9  21906426.374 9  21906428.394 9
  22821118.374 8 119925857.342 8  93448730.276 8  22821115.786 8  22821117.528 8
  20902159.753 9 109841596.916 9  85590848.971 9  20902155.509 9  20902159.244 9
  20690995.689 9 108731921.923 9  84726166.239 9  20690992.850 9  20690994.619 9
  23498043.839 8 123483059.541 8  96220549.406 7  23498040.021 7  23498042.662 7
  22485289.714 9 118160993.475 9  92073492.844 8  22485286.570 8  22485288.948 8
  20638351.584 9 108455314.827 9  84510633.185 9  20638346.009 9  20638349.948 9
  23910482.487 8 125650445.067 8  97909425.410 6  23910477.892 6  23910480.951 6
 09  6 30  1 47 30.0000000  0  9G22G 3G 6G11G32G14G20G19G28
  24398675.572 7 128215948.173 7  99908522.217 6  24398670.985 6  24398675.750 6
  21922086.820 9 115201397.751 9  89767322.233 9  21922083.794 9  21922085.659 9
  22837036.528 8 120009507.958 8  93513912.551 8  22837033.877 8  22837035.286 8
  20894373.036 9 109800677.068 9  85558963.367 9  20894368.740 9  20894372.343 9
  20681582.252 9 108682453.609 9  84687619.490 9  20681579.437 9  20681580.990 9
  23496099.829 8 123472845.465 8  96212590.382 7  23496095.922 7  23496099.074 7
  22467260.036 9 118066246.222 9  91999663.846 8  22467257.108 8  22467258.915 8
  20643660.892 9 108483215.917 9  84532374.283 9  20643655.482 9  20643659.449 9
  23898110.423 8 125585433.395 8  97858766.985 6  23898107.342 6  23898109.715 6
 09  6 30  1 48  0.0000000  0  9G22G 3G 6G11G32G14G20G19G28
  24417407.749 7 128314387.583 7  99985228.234 6  24417403.632 6  24417407.823 6
  21937801.173 9 115283977.446 9  89831670.044 9  21937798.278 9  21937800.112 9
  22853004.084 8 120093417.762 8  93579296.819 8  22853001.434 8  22853003.222 8
  20886630.213 9 109759989.197 9  85527258.525 9  20886626.021 9  20886629.611 9
  20672264.566 9 108633488.038 9  84649464.491 9  20672261.431 9  20672263.183 9
  23494257.186 8 123463160.255 8  96205043.451 7  23494253.456 7  23494255.936 7
  22449283.823 9 117971780.631 9  91926054.321 8  22449280.717 8  22449282.659 8
  20649045.489 9 108511512.064 9  84554423.210 9  20649040.222 9  20649043.944 9
  23885819.661 8 125520843.058 8  97808436.852 7  23885815.734 7  23885818.434 7
 09  6 30  1 48 30.0000000  0  9G22G 3G 6G11G32G14G20G19G28
  24436161.180 8 128412935.973 8 100062019.178 6  24436157.144 6  24436160.917 6
  21953572.006 9 115366853.752 9  89896248.983 9  21953569.097 9  21953571.002 9
  22869020.734 8 120177585.655 8  93644882.186 8  22869017.963 8  22869019.775 8
  20878931.949 9 109719533.697 9  85495734.755 9  20878927.726 9  20878931.307 9
  20663042.492 9 108585026.178 9  84611702.003 9  20663039.645 9  20663041.056 9
  23492514.697 8 123454004.996 8  96197909.479 7  23492511.014 7  23492513.598 7
  22431361.538 9 117877598.517 9  91852665.689 8  22431358.221 8  22431360.379 8
  20654505.419 9 108540203.721 9  84576780.337 9  20654499.870 9  20654504.103 9
  23873609.402 8 125456676.698 8  97758437.120 7  23873605.169 7  23873607.931 7
 09  6 30  1 49  0.0000000  0  9G22G 3G 6G11G32G14G20G19G28
  24454935.247 8 128511591.221 8 100138893.391 6  24454930.443 6  24454933.826 6
  21969398.951 9 115450025.529 9  89961058.158 9  21969395.875 9  21969398.172 9
  22885086.309 8 120262010.487 8  93710667.777 8  22885083.417 8  22885085.658 8
  20871277.849 9 109679310.931 9  85464392.346 9  20871273.539 9  20871277.331 9
  20653916.513 9 108537068.747 9  84574332.592 9  20653913.550 9  20653915.171 9
  23490873.443 8 123445380.971 8  96191189.481 7  23490870.061 7  23490872.400 7
  22413493.431 9 117783701.648 9  91779499.312 8  22413490.183 8  22413492.161 8
  20660040.695 9 108569291.213 9  84599445.911 9  20660034.956 9  20660039.244 9
  23861480.379 8 125392936.039 8  97708769.114 7  23861475.647 7  23861478.945 7
 09  6 30  1 49 30.0000000  0  9G22G 3G 6G11G32G14G20G19G28
  24473728.232 8 128610351.312 8 100215849.328 6  24473723.630 6  24473727.108 6
  21985282.092 9 115533491.476 9  90026096.550 9  21985279.004 9  21985280.953 9
  22901200.632 8 120346691.188 8  93776652.731 8  22901198.030 8  22901199.753 8
  20863668.033 9 109639321.717 9  85433231.922 9  20863663.642 9  20863667.216 9
  20644886.517 9 108489616.670 9  84537356.969 9  20644883.682 9  20644885.445 9
  23489333.986 8 123437288.821 8  96184883.938 7  23489329.978 7  23489332.422 7
  22395680.539 9 117690092.047 9  91706556.796 8  22395676.819 8  22395678.876 8
  20665651.045 9 108598774.844 9  84622420.170 9  20665645.709 9  20665649.726 9
  23849431.820 8 125329622.876 8  97659434.175 7  23849427.931 7  23849430.812 7
 09  6 30  1 50  0.0000000  0  9G22G 3G 6G11G32G14G20G19G28
  24492541.523 7 128709213.600 7 100292884.935 6  24492536.123 6  24492539.124 6
  22001220.818 9 115617250.476 9  90091363.296 9  22001218.308 9  22001219.827 9
  22917363.174 8 120431626.710 8  93842836.242 8  22917360.271 8  22917362.623 8
  20856102.813 9 109599565.962 9  85402253.406 9  20856098.447 9  20856102.032 9
  20635952.997 9 108442670.775 9  84500775.760 9  20635949.911 9  20635951.842 9
  23487894.900 8 123429729.481 8  96178993.552 7  23487891.367 7  23487894.699 7
  22377922.131 9 117596771.389 9  91633839.431 8  22377918.402 8  22377920.344 8
  20671337.129 9 108628654.773 9  84645703.237 9  20671331.505 9  20671335.729 9
  23837465.661 8 125266739.142 8  97610433.882 7  23837461.676 7  23837464.110 7
 09  6 30  1 50 30.0000000  0  9G22G 3G 6G11G32G14G20G19G28
  24511373.236 7 128808176.745 7 100369999.072 6  24511367.546 6  24511371.450 6
  22017215.224 9 115701300.988 9  90156857.188 9  22017212.548 9  22017214.046 9
  22933574.643 8 120516816.011 8  93909217.514 8  22933571.230 8  22933573.612 8
  20848581.961 9 109560044.164 9  85371457.207 9  20848577.783 9  20848581.101 9
  20627115.966 9 108396231.903 9  84464589.645 9  20627112.879 9  20627114.665 9
  23486558.227 8 123422704.148 8  96173519.267 7  23486555.132 7  23486557.397 7
  22360219.172 9 117503741.079 9  91561348.320 8  22360215.188 8  22360217.327 8
  20677098.452 9 108658931.261 9  84669295.311 9  20677092.941 9  20677097.132 9
  23825580.757 8 125204286.855 8  97561769.811 7  23825577.262 7  23825579.833 7
 09  6 30  1 51  0.0000000  0  9G22G 3G 6G11G32G14G20G19G28
  24530224.033 7 128907238.050 7 100447189.691 6  24530217.918 6  24530222.854 6
  22033264.601 9 115785641.684 9  90222577.209 9  22033261.985 9  22033263.746 9
  22949833.603 8 120602257.923 8  93975795.633 8  22949830.116 8  22949832.341 8
  20841105.966 9 109520756.715 9  85340843.618 9  20841101.677 9  20841105.129 9
  20618375.416 9 108350300.673 9  84428799.088 9  20618372.538 9  20618374.236 9
  23485322.969 8 123416213.588 8  96168461.694 7  23485320.154 7  23485322.400 7
  22342571.383 9 117411002.874 9  91489084.797 8  22342567.650 8  22342570.075 8
  20682935.514 9 108689604.790 9  84693196.756 9  20682929.715 9  20682934.061 9
  23813778.689 8 125142267.871 8  97513443.346 6  23813775.069 6  23813777.836 6
 09  6 30  1 51 30.0000000  0  9G22G 3G 6G11G32G14G20G19G28
  24549093.322 7 129006395.736 7 100524455.413 6  24549086.896 6  24549091.800 6
  22049369.045 9 115870270.890 9  90288522.049 9  22049366.317 9  22049368.074 9
  22966140.366 8 120687951.301 8  94042569.698 7  22966137.088 7  22966139.363 7
  20833674.377 9 109481703.660 9  85310412.671 9  20833670.231 9  20833673.578 9
  20609731.967 9 108304877.953 9  84393404.765 9  20609729.030 9  20609730.742 9
  23484190.316 8 123410258.735 8  96163821.555 7  23484187.023 7  23484189.071 7
  22324979.869 9 117318558.989 9  91417050.628 8  22324976.590 8  22324978.765 8
  20688847.981 9 108720675.526 9  84717407.712 9  20688842.426 9  20688846.722 9
  23802059.815 8 125080684.039 8  97465455.965 6  23802055.699 6  23802058.800 6
 09  6 30  1 52  0.0000000  0  9G22G 3G 6G11G32G14G20G19G28
  24567979.984 7 129105647.520 7 100601794.468 6  24567974.567 6  24567978.841 6
  22065528.340 9 115955187.944 9  90354691.175 9  22065525.415 9  22065527.069 9
  22982494.447 8 120773895.043 8  94109538.883 7  22982491.802 7  22982493.679 7
  20826287.505 9 109442885.685 9  85280164.908 9  20826283.350 9  20826286.651 9
  20601185.216 9 108259964.421 9  84358407.210 9  20601182.534 9  20601184.001 9
  23483159.372 8 123404840.206 8  96159599.325 7  23483155.243 7  23483158.315 7
  22307444.835 9 117226411.089 9  91345247.109 8  22307441.689 8  22307443.665 8
  20694836.385 9 108752143.893 9  84741928.518 9  20694830.824 9  20694834.963 9
  23790424.060 8 125019537.286 8  97417809.166 6  23790420.372 6  23790422.672 6
 09  6 30  1 52 30.0000000  0  9G22G 3G 6G11G32G14G20G19G28
  24586884.732 7 129204991.000 7 100679204.966 6  24586879.275 6  24586883.058 6
  22081741.949 9 116040391.245 9  90421083.346 9  22081738.805 9  22081740.888 9
  22998896.804 8 120860087.890 8  94176702.158 7  22998893.903 7  22998895.401 7
  20818945.384 9 109404303.189 9  85250100.644 9  20818941.144 9  20818944.824 9
  20592735.309 9 108215560.795 9  84323806.992 9  20592732.502 9  20592734.072 9
  23482230.101 8 123399958.880 8  96155795.716 7  23482226.760 7  23482229.690 7
  22289966.047 9 117134561.067 9  91273675.697 8  22289963.137 8  22289965.008 8
  20700900.173 9 108784009.870 9  84766759.149 9  20700894.732 9  20700898.707 9
  23778871.700 8 124958829.344 8  97370504.305 7  23778867.908 7  23778870.256 7
 09  6 30  1 53  0.0000000  0  9G22G 3G 6G11G32G14G20G19G28
  24605806.548 7 129304424.236 7 100756685.394 6  24605800.765 6  24605804.707 6
  22098009.810 9 116125879.393 9  90487697.480 9  22098006.755 9  22098008.803 9
  23015345.670 8 120946528.883 8  94244058.777 7  23015342.892 7  23015344.473 7
  20811648.402 9 109365956.684 9  85220220.262 9  20811643.795 9  20811647.807 9
  20584382.744 9 108171667.835 9  84289604.696 9  20584379.791 9  20584381.858 9
  23481403.632 8 123395615.888 8  96152411.581 7  23481400.486 7  23481402.659 7
  22272544.320 9 117043010.316 9  91202337.462 8  22272541.372 8  22272543.259 8
  20707039.900 9 108816273.854 9  84791899.912 9  20707034.373 9  20707038.530 9
  23767403.507 8 124898562.160 8  97323542.889 6  23767399.348 6  23767401.890 6
 09  6 30  1 53 30.0000000  0  9G22G 3G 6G11G32G14G20G19G28
  24624744.436 7 129403945.180 7 100834234.154 6  24624738.732 6  24624742.522 6
  22114331.442 9 116211651.167 9  90554532.630 9  22114328.431 9  22114330.600 9
  23031842.057 8 121033216.747 8  94311607.776 7  23031838.810 7  23031840.842 7
  20804396.064 9 109327846.084 9  85190523.696 9  20804391.572 9  20804395.400 9
  20576127.651 9 108128286.198 9  84255800.820 9  20576124.499 9  20576126.529 9
  23480679.857 8 123391811.916 8  96149447.446 7  23480676.528 7  23480678.837 7
  22255180.300 9 116951760.757 9  91131233.927 8  22255176.910 8  22255179.014 8
  20713255.331 9 108848935.908 9  84817350.863 9  20713249.690 9  20713254.085 9
  23756019.206 8 124838737.570 8  97276926.354 7  23756015.373 7  23756017.954 7
 09  6 30  1 54  0.0000000  0  9G22G 3G 6G11G32G14G20G19G28
  24643698.436 7 129503551.850 7 100911849.718 6  24643692.584 6  24643697.268 6
  22130707.144 9 116297705.075 9  90621587.613 9  22130704.104 9  22130706.182 9
  23048385.150 8 121120150.377 8  94379348.305 7  23048381.976 7  23048383.711 7
  20797188.973 9 109289972.188 9  85161011.563 9  20797184.379 9  20797188.401 9
  20567969.917 9 108085416.442 9  84222395.821 9  20567967.077 9  20567968.664 9
  23480058.433 8 123388547.667 8  96146903.881 7  23480055.138 7  23480057.537 7
  22237873.844 9 116860813.819 9  91060366.181 8  22237869.892 8  22237872.498 8
  20719546.488 9 108881996.445 9  84843112.322 9  20719540.846 9  20719545.156 9
  23744720.233 8 124779357.563 8  97230656.239 7  23744715.410 7  23744718.542 7
 09  6 30  1 54 30.0000000  0  9G22G 3G 6G11G32G14G20G19G28
  24662669.239 7 129603242.123 7 100989530.423 5  24662663.382 5  24662667.051 5
  22147136.283 9 116384039.953 9  90688861.540 9  22147133.193 9  22147135.348 9
  23064974.406 8 121207328.536 8  94447279.351 7  23064971.343 7  23064973.837 7
  20790026.935 9 109252335.360 9  85131684.145 9  20790022.744 9  20790026.207 9
  20559909.494 9 108043059.224 9  84189390.200 9  20559906.442 9  20559908.587 9
  23479540.261 8 123385823.733 8  96144781.349 7  23479536.469 7  23479539.404 7
  22220625.245 9 116770171.552 9  90989735.841 8  22220621.275 8  22220624.094 8
  20725913.367 9 108915455.569 9  84869184.362 9  20725907.904 9  20725911.911 9
  23733505.061 8 124720424.162 8  97184734.114 7  23733500.695 7  23733504.135 7
 09  6 30  1 55  0.0000000  0  9G22G 3G 6G11G32G14G20G19G28
  24681654.256 7 129703013.866 7 101067274.634 5  24681649.605 5  24681652.880 5
  22163618.504 9 116470653.936 9  90756352.955 9  22163615.327 9  22163617.459 9
  23081610.120 8 121294750.028 8  94515399.994 7  23081606.982 7  23081609.745 7
  20782910.176 9 109214935.861 9  85102541.661 9  20782905.785 9  20782909.286 9
  20551946.874 9 108001215.215 9  84156784.479 9  20551943.827 9  20551945.756 9
  23479124.609 8 123383640.822 8  96143080.380 7  23479120.702 7  23479123.861 7
  22203434.596 9 116679835.643 9  90919344.229 8  22203431.280 8  22203433.708 8
  20732356.355 9 108949313.528 9  84895567.177 9  20732350.915 9  20732354.885 9
  23722375.369 8 124661938.550 8  97139160.905 7  23722371.272 7  23722374.749 7
 09  6 30  1 55 30.0000000  0  9G22G 3G 6G11G32G14G20G19G28
  24700656.344 7 129802865.166 7 101145080.843 6  24700650.107 6  24700654.248 6
  22180153.176 9 116557546.085 9  90824061.118 9  22180150.414 9  22180152.027 9
  23098292.178 8 121382413.753 8  94583709.378 7  23098289.014 7  23098291.375 7
  20775838.425 9 109177774.182 9  85073584.484 9  20775833.971 9  20775837.750 9
  20544081.652 9 107959884.965 9  84124579.100 9  20544079.268 9  20544080.960 9
  23478812.420 8 123381999.899 8  96141801.751 7  23478809.031 7  23478811.618 7
  22186303.074 9 116589807.568 9  90849192.487 8  22186299.687 8  22186301.981 8
  20738875.347 9 108983570.361 9  84922260.808 9  20738869.811 9  20738873.847 9
  23711331.506 8 124603902.938 8  97093938.361 7  23711327.848 7  23711331.041 7
 09  6 30  1 56  0.0000000  0  9G22G 3G 6G11G32G14G20G19G28
  24719671.780 7 129902793.747 7 101222947.267 6  24719665.964 6  24719670.450 6
  22196740.986 9 116644715.004 9  90891984.944 9  22196738.039 9  22196739.597 9
  23115019.818 8 121470318.515 8  94652206.561 7  23115016.965 7  23115018.554 7
  20768812.314 9 109140850.625 9  85044812.861 9  20768808.027 9  20768811.361 9
  20536314.991 9 107919069.021 9  84092774.484 9  20536312.081 9  20536313.839 9
  23478603.529 8 123380901.436 8  96140945.811 7  23478600.460 7  23478602.117 7
  22169230.199 9 116500089.312 9  90779282.156 9  22169226.950 9  22169229.111 9
  20745470.284 9 109018226.517 9  84949265.602 9  20745464.837 9  20745468.980 9
  23700373.134 8 124546318.902 8  97049067.683 7  23700370.110 7  23700372.118 7
 09  6 30  1 56 30.0000000  0  9G22G 3G 6G11G32G14G20G19G28
  24738701.812 7 130002797.533 7 101300872.310 6  24738696.388 6  24738700.903 6
  22213381.195 9 116732159.214 9  90960123.293 9  22213378.056 9  22213379.665 9
  23131793.052 8 121558463.006 8  94720890.574 7  23131790.513 7  23131791.987 7
  20761831.248 9 109104165.568 9  85016227.097 9  20761827.103 9  20761830.662 9
  20528645.880 9 107878768.005 9  84061371.116 9  20528642.871 9  20528644.675 9
  23478497.522 8 123380346.100 8  96140513.090 7  23478494.796 7  23478496.830 7
  22152216.524 9 116410682.271 9  90709614.330 8  22152213.295 8  22152215.534 8
  20752141.035 9 109053281.751 9  84976581.371 9  20752135.645 9  20752139.713 9
  23689501.637 8 124489188.301 8  97004550.334 7  23689497.713 7  23689500.406 7
 09  6 30  1 57  0.0000000  0  9G22G 3G 6G11G32G14G20G19G28
  24757746.122 7 130102874.299 7 101378854.208 6  24757740.340 6  24757745.164 6
  22230073.074 9 116819877.183 9  91028474.965 9  22230070.345 9  22230072.138 9
  23148611.554 8 121646846.094 8  94789760.510 7  23148609.158 7  23148610.753 7
  20754895.671 9 109067719.464 9  84987827.535 9  20754891.595 9  20754895.042 9
  20521075.056 9 107838982.406 9  84030369.368 9  20521071.921 9  20521073.645 9
  23478495.528 8 123380334.595 8  96140504.122 7  23478492.108 7  23478494.612 7
  22135262.464 9 116321588.276 9  90640190.442 9  22135259.290 9  22135261.342 9
  20758887.591 9 109088736.316 9  85004208.305 9  20758882.436 9  20758886.275 9
  23678716.929 8 124432513.027 8  96960387.798 7  23678713.175 7  23678715.302 7
 09  6 30  1 57 30.0000000  0  9G22G 3G 6G11G32G14G20G19G28
  24776803.574 7 130203022.091 7 101456891.437 6  24776797.848 6  24776802.352 6
  22246817.262 9 116907867.519 9  91097038.851 9  22246814.369 9  22246816.039 9
  23165475.821 8 121735466.581 8  94858815.425 7  23165472.894 7  23165474.583 7
  20748005.881 9 109031512.892 9  84959614.623 9  20748001.604 9  20748005.142 9
  20513602.206 9 107799712.731 9  83999769.627 9  20513598.990 9  20513601.035 9
  23478596.804 8 123380867.423 8  96140919.324 7  23478593.209 7  23478595.877 7
  22118368.484 9 116232808.958 9  90571011.766 9  22118364.982 9  22118366.895 9
  20765710.470 9 109124590.233 9  85032146.414 9  20765704.968 9  20765708.894 9
  23668018.365 8 124376294.660 8  96916581.293 7  23668014.991 7  23668017.360 7
 09  6 30  1 58  0.0000000  0  9G22G 3G 6G11G32G14G20G19G28
  24795873.610 7 130303239.128 7 101534982.647 6  24795868.395 6  24795873.142 6
  22263612.808 9 116996128.777 9  91165813.862 9  22263609.801 9  22263611.961 9
  23182384.101 8 121824323.250 8  94928054.372 7  23182381.254 7  23182383.474 7
  20741161.470 9 108995546.071 9  84931588.546 9  20741157.526 9  20741160.761 9
  20506227.594 9 107760959.441 9  83969572.262 9  20506224.630 9  20506226.216 9
  23478802.475 8 123381945.155 8  96141759.108 7  23478798.088 7  23478800.559 7
  22101534.331 9 116144346.096 9  90502079.665 9  22101530.960 9  22101533.127 9
  20772609.401 9 109160843.666 9  85060395.838 9  20772603.817 9  20772607.959 9
  23657408.011 8 124320534.808 8  96873132.050 7  23657404.359 7  23657407.176 7
 09  6 30  1 58 30.0000000  0  9G22G 3G 6G11G32G14G20G19G28
  24814957.509 7 130403523.162 7 101613126.095 5  24814951.774 5  24814956.065 5
  22280459.737 9 117084659.539 9  91234798.869 9  22280456.626 9  22280458.652 9
  23199338.368 8 121913414.789 8  94997476.327 7  23199334.816 7  23199337.398 7
  20734362.797 9 108959819.411 9  84903749.603 9  20734358.693 9  20734362.100 9
  20498951.279 9 107722722.983 9  83939777.629 9  20498948.624 9  20498950.079 9
  23479111.065 8 123383568.481 8  96143024.046 7  23479107.354 7  23479109.700 7
  22084760.674 9 116056201.286 9  90433395.405 9  22084757.957 9  22084759.790 9
  20779584.415 9 109197497.167 9  85088957.001 9  20779578.802 9  20779582.976 9
  23646885.022 8 124265235.266 8  96830041.507 7  23646881.188 7  23646884.721 7
 09  6 30  1 59  0.0000000  0  9G22G 3G 6G11G32G14G20G19G28
  24834053.177 7 130503872.318 7 101691320.241 5  24834047.733 5  24834051.169 5
  22297357.697 9 117173458.727 9  91303993.044 9  22297354.583 9  22297356.362 9
  23216335.921 8 122002740.117 8  95067080.480 7  23216333.235 7  23216335.475 7
  20727610.161 9 108924333.335 9  84876098.131 9  20727605.810 9  20727609.226 9
  20491773.761 9 107685003.790 9  83910386.059 9  20491770.820 9  20491772.595 9
  23479523.903 8 123385737.926 8  96144714.525 7  23479520.451 7  23479522.565 7
  22068048.323 9 115968375.591 9  90364959.812 9  22068044.922 9  22068046.853 9
  20786635.315 9 109234550.782 9  85117829.944 9  20786629.812 9  20786633.989 9
  23636450.112 8 124210397.891 8  96787311.078 7  23636446.187 7  23636449.571 7
 09  6 30  1 59 30.0000000  0  9G22G 3G 6G11G32G14G20G19G28
  24853160.920 7 130604284.159 7 101769563.225 5  24853155.601 5  24853158.890 5
  22314306.503 9 117262524.834 9  91373395.202 9  22314303.291 9  22314305.065 9
  23233378.795 8 122092297.706 8  95136865.613 7  23233375.476 7  23233377.648 7
  20720903.411 9 108889088.319 9  84848634.500 9  20720898.871 9  20720902.844 9
  20484694.487 9 107647802.351 9  83881397.929 9  20484691.520 9  20484693.244 9
  23480040.594 8 123388453.642 8  96146830.696 7  23480037.147 7  23480039.720 7
  22051396.729 9 115880871.414 9  90296774.763 9  22051393.206 9  22051395.640 9
  20793762.419 9 109272004.022 9  85147014.274 9  20793756.972 9  20793760.983 9
  23626103.220 8 124156024.184 8  96744941.956 7  23626098.985 7  23626102.437 7
 09  6 30  2  0  0.0000000  0  9G22G 3G 6G11G32G14G20G19G28
  24872279.783 7 130704756.996 7 101847853.762 5  24872274.798 5  24872278.718 5
  22331305.682 9 117351855.770 9  91443003.722 9  22331302.311 9  22331304.683 9
  23250464.358 8 122182086.386 8  95206830.822 7  23250461.689 7  23250463.752 7
  20714242.297 9 108854084.635 9  84821358.913 9  20714238.023 9  20714241.715 9
  20477713.697 9 107611119.058 9  83852813.544 9  20477711.014 9  20477712.484 9
  23480661.475 8 123391716.389 8  96149373.093 7  23480657.671 7  23480660.705 7
  22034806.921 9 115793690.106 9  90228841.283 9  22034802.791 9  22034805.802 9
  20800965.687 9 109309857.035 9  85176510.117 9  20800960.019 9  20800964.147 9
  23615844.470 8 124102115.563 8  96702935.229 7  23615840.503 7  23615843.559 7
 09  6 30  2  0 30.0000000  0  9G22G 3G 6G11G32G14G20G19G28
  24891411.104 7 130805288.721 7 101926190.129 5  24891405.569 5  24891408.803 5
  22348354.330 9 117441450.592 9  91512817.863 9  22348351.624 9  22348353.853 9
  23267594.728 8 122272105.114 8  95276975.274 7  23267591.586 7  23267593.839 7
  20707627.387 9 108819322.786 9  84794271.770 9  20707622.952 9  20707626.995 9
  20470832.014 9 107574954.198 9  83824633.134 9  20470828.883 9  20470830.622 9
  23481386.442 8 123395526.550 8  96152342.058 7  23481383.212 7  23481385.168 7
  22018278.374 9 115706833.111 9  90161160.522 9  22018274.739 9  22018277.351 9
  20808244.948 9 109348110.358 9  85206317.895 9  20808239.375 9  20808243.642 9
  23605675.025 8 124048673.838 8  96661292.310 7  23605670.418 7  23605674.061 7
 09  6 30  2  1  0.0000000  0  9G22G 3G 6G11G32G14G20G19G28
  24910552.811 7 130905877.190 7 102004570.767 5  24910547.804 5  24910551.726 5
  22365454.031 9 117531308.050 9  91582836.655 9  22365451.008 9  22365452.738 9
  23284767.971 8 122362352.408 8  95347297.815 7  23284765.159 7  23284767.397 7
  20701058.517 9 108784803.020 9  84767373.258 9  20701054.387 9  20701057.630 9
  20464048.758 9 107539308.225 9  83796857.051 9  20464045.313 9  20464047.352 9
  23482215.828 8 123399884.446 8  96155737.822 7  23482212.475 7  23482214.210 7
  22001812.249 9 115620302.434 9  90093734.029 9  22001808.703 9  22001810.914 9
  20815600.576 9 109386763.693 9  85236437.368 9  20815594.868 9  20815599.074 9
  23595594.788 8 123995701.052 8  96620014.823 7  23595589.861 7  23595593.512 7
 09  6 30  2  1 30.0000000  0  9G22G 3G 6G11G32G14G20G19G28
  24929703.913 7 131006520.605 7 102082994.234 5  24929699.720 5  24929704.000 5
  22382602.770 9 117621426.144 9  91653058.552 9  22382599.838 9  22382601.789 9
  23301984.867 8 122452827.065 8  95417797.526 7  23301981.767 7  23301984.044 7
  20694535.912 9 108750526.093 9  84740663.966 9  20694531.500 9  20694534.913 9
  20457364.212 9 107504181.439 9  83769485.533 9  20457361.309 9  20457363.062 9
  23483149.477 8 123404790.818 8  96159560.962 7  23483146.114 7  23483148.612 7
  21985408.018 9 115534099.372 9  90026562.824 9  21985405.128 9  21985407.073 9
  20823032.113 9 109425817.170 9  85266868.639 9  20823026.811 9  20823030.799 9
  23585603.088 8 123943198.460 8  96579103.733 7  23585599.034 7  23585602.760 7
 09  6 30  2  2  0.0000000  0  9G22G 3G 6G11G32G14G20G19G28
  24948866.071 7 131107216.856 7 102161458.818 5  24948860.714 5  24948866.615 5
  22399801.315 9 117711803.912 9  91723482.791 9  22399798.124 9  22399800.249 9
  23319244.947 8 122543527.753 8  95488473.372 7  23319241.557 7  23319243.991 7
  20688059.211 9 108716492.141 9  84714144.006 9  20688054.965 9  20688058.426 9
  20450778.732 9 107469574.198 9  83742518.858 9  20450775.815 9  20450777.677 9
  23484187.049 8 123410245.669 8  96163811.493 7  23484184.181 7  23484186.304 7
  21969066.924 9 115448225.336 9  89959647.997 9  21969063.828 9  21969065.590 9
  20830540.025 9 109465270.689 9  85297611.626 9  20830534.552 9  20830538.371 9
  23575702.867 8 123891167.526 8  96538560.143 7  23575698.328 7  23575701.370 7
 09  6 30  2  2 30.0000000  0  9G22G 3G 6G11G32G14G20G19G28
  24968037.433 7 131207964.337 7 102239963.314 4  24968032.763 4  24968039.354 4
  22417048.514 9 117802439.368 9  91794107.824 9  22417045.939 9  22417047.517 9
  23336547.162 8 122634453.105 8  95559324.281 7  23336544.271 7  23336546.630 7
  20681629.284 9 108682701.652 9  84687813.760 9  20681624.584 9  20681628.511 9
  20444292.081 9 107435486.706 9  83715957.176 9  20444288.887 9  20444290.818 9
  23485330.003 8 123416249.540 8  96168489.850 7  23485326.598 7  23485328.786 7
  21952788.674 9 115362682.242 9  89892991.057 9  21952785.532 9  21952787.372 9
  20838123.893 9 109505124.275 9  85328666.362 9  20838118.463 9  20838122.527 9
  23565891.337 8 123839609.960 8  96498385.424 7  23565887.921 7  23565890.730 7
 09  6 30  2  3  0.0000000  0  9G22G 3G 6G11G32G14G20G19G28
  24987218.743 7 131308760.809 7 102318506.089 5  24987216.601 5  24987221.542 5
  22434344.642 9 117893331.469 9  91864932.839 9  22434342.434 9  22434343.562 9
  23353892.463 8 122725601.959 8  95630349.362 7  23353889.343 7  23353891.459 7
  20675245.336 9 108649155.045 9  84661673.551 9  20675241.083 9  20675244.988 9
  20437904.533 9 107401919.325 9  83689800.766 9  20437901.311 9  20437903.231 9
  23486576.865 8 123422802.589 8  96173596.147 7  23486573.557 7  23486575.908 7
  21936573.862 9 115277471.474 9  89826593.059 9  21936570.010 9  21936572.273 9
  20845783.620 9 109545377.795 9  85360032.737 9  20845778.302 9  20845782.325 9
  23556170.486 8 123788527.321 8  96458580.784 7  23556166.895 7  23556169.706 7
 09  6 30  2  3 30.0000000  0  9G22G 3G 6G11G32G14G20G19G28
  25006409.039 7 131409604.121 7                                  25006410.540
  22451689.417 9 117984478.467 9  91935956.486 9  22451686.917 9  22451688.112 9
  23371279.842 8 122816972.967 8  95701547.550 7  23371276.771 7  23371279.029 7
  20668908.339 9 108615852.783 9  84635723.736 9  20668904.057 9  20668907.618 9
  20431615.756 9 107368872.281 9  83664049.815 9  20431612.933 9  20431614.754 9
  23487928.601 8 123429905.351 8  96179130.735 7  23487924.801 7  23487927.540 7
  21920422.170 9 115192594.423 9  89760455.108 9  21920418.497 9  21920420.743 9
  20853519.981 9 109586031.421 9  85391710.883 9  20853514.508 9  20853518.202 9
  23546541.045 8 123737921.240 8  96419147.483 7  23546536.711 7  23546539.551 7
 09  6 30  2  4  0.0000000  0  9G22G 3G 6G11G32G14G20G19G28
  25025607.124 6 131510492.179 6 102475699.288 4  25025605.163 4  25025610.190 4
  22469082.525 9 118075878.936 9  92007177.631 9  22469079.511 9  22469081.300 9
  23388709.483 8 122908564.767 8  95772917.780 7  23388705.849 7  23388708.311 7
  20662617.757 9 108582795.443 9  84609964.771 9  20662613.467 9  20662617.201 9
  20425426.142 9 107336345.815 9  83638704.509 9  20425423.105 9  20425424.896 9
  23489384.268 8 123437557.872 8  96185093.745 7  23489381.166 7  23489383.669 7
  21904334.452 9 115108052.818 9  89694578.541 9  21904330.808 9  21904332.866 9
  20861332.224 9 109627084.966 9  85423700.651 9  20861326.870 9  20861330.763 9
  23537001.675 8 123687792.992 8  96380086.505 7  23536997.300 7  23537000.556 7
 09  6 30  2  4 30.0000000  0  9G22G 3G 6G11G32G14G20G19G28
  25044813.112 6 131611424.277 6 102554347.754 5  25044811.940 5  25044815.280 5
  22486523.062 9 118167531.091 9  92078594.894 9  22486520.225 9  22486521.951 9
  23406180.636 8 123000375.977 8  95844458.971 7  23406177.000 7  23406179.348 7
  20656373.657 9 108549983.156 9  84584396.759 9  20656369.453 9  20656373.024 9
  20419335.893 9 107304340.133 9  83613765.019 9  20419332.740 9  20419334.514 9
  23490946.185 8 123445760.512 8  96191485.421 7  23490942.041 7  23490944.755 7
  21888310.690 9 115023848.466 9  89628964.774 9  21888307.116 9  21888309.589 9
  20869220.520 9 109668538.432 9  85456002.049 9  20869215.030 9  20869219.084 9
  23527553.723 8 123638144.072 8  96341399.048 7  23527549.263 7  23527552.733 7
 09  6 30  2  5  0.0000000  0  9G22G 3G 6G11G32G14G20G19G28
  25064028.480 6 131712397.021 6
  22504011.664 9 118259433.586 9  92150207.225 9  22504008.845 9  22504010.702 9
  23423692.512 8 123092405.284 8  95916170.120 7  23423689.798 7  23423691.647 7
  20650176.415 9 108517415.992 9  84559019.746 9  20650171.983 9  20650175.445 9
  20413344.493 9 107272855.356 9  83589231.436 9  20413341.619 9  20413343.269 9
  23492611.143 8 123454513.640 8  96198306.037 7  23492608.206 7  23492610.592 7
  21872351.444 9 114939982.225 9  89563614.450 9  21872347.541 9  21872350.328 9
  20877185.132 9 109710391.992 9  85488615.213 9  20877179.469 9  20877183.463 9
  23518197.444 8 123588976.451 8  96303086.621 7  23518192.932 7  23518196.182 7
 09  6 30  2  5 30.0000000  0  9G22G 3G 6G11G32G14G20G19G28
  25083250.746 6 131813408.835 6
  22521547.336 9 118351584.711 9  92222013.292 8  22521544.741 8  22521546.146 8
  23441246.043 8 123184651.430 8  95988050.232 7  23441243.649 7  23441245.427 7
  20644025.943 9 108485095.398 9  84533834.871 9  20644021.629 9  20644025.160 9
  20407452.188 9 107241891.676 9  83565103.909 9  20407449.262 9  20407450.971 9
  23494381.784 8 123463817.277 8  96205555.642 7  23494378.300 7  23494381.441 7
  21856457.028 9 114856455.884 9  89498528.978 9  21856453.267 9  21856455.925 9
  20885225.410 9 109752645.294 9  85521539.861 9  20885219.948 9  20885224.015 9
  23508932.974 8 123540291.262 8  96265150.112 7  23508928.565 7  23508931.642 7
 09  6 30  2  6  0.0000000  0  9G22G 3G 6G11G32G14G20G19G28
  25102478.903 6 131914457.784 6
  22539130.223 9 118443983.205 9  92294012.132 8  22539127.478 8  22539128.948 8
  23458841.375 8 123277113.087 8  96060098.259 7  23458838.737 7  23458840.396 7
  20637922.581 9 108453021.505 9  84508842.233 9  20637918.154 9  20637921.777 9
  20401659.043 9 107211449.383 9  83541382.657 9  20401656.203 9  20401658.019 9
  23496256.831 8 123473671.734 8  96213234.438 7  23496253.568 7  23496256.301 7
  21840627.465 9 114773271.158 9  89433709.697 9  21840623.670 9  21840625.999 9
  20893342.141 9 109795298.420 9  85554776.062 9  20893336.440 9  20893340.660 9
  23499760.498 8 123492089.662 8  96227590.415 7  23499755.329 7  23499759.547 7
 09  6 30  2  6 30.0000000  0  9G22G 3G 6G11G32G14G20G19G28
  25121715.235 6 132015542.633 6
  22556759.545 9 118536627.663 9  92366202.623 8  22556757.070 8  22556758.827 8
  23476476.942 8 123369788.713 8  96132313.011 7  23476474.498 7  23476476.769 7
  20631866.094 9 108421194.407 9  84484041.908 9  20631861.779 9  20631865.243 9
  20395965.303 9 107181528.455 9  83518067.668 9  20395962.470 9  20395964.091 9
  23498236.924 8 123484077.267 8  96221342.660 7  23498233.413 7  23498235.962 7
  21824862.850 9 114690429.395 9  89369157.669 9  21824859.605 9  21824861.605 9
  20901534.710 9 109838351.302 9  85588323.764 9  20901529.168 9  20901533.453 9
  23490680.465 8 123444373.494 8  96190408.966 7  23490675.638 7  23490679.908 7
 09  6 30  2  7  0.0000000  0  9G22G 3G 6G11G32G14G20G19G28
  25140957.837 6 132116660.817 6
  22574436.083 9 118629516.106 9  92438583.233 8  22574432.653 8  22574435.019 8
  23494153.506 8 123462677.147 8  96204693.587 6  23494150.491 6  23494153.202 6
  20625856.677 9 108389614.584 9  84459434.259 9  20625852.231 9  20625855.999 9
  20390370.897 9 107152129.040 9  83495159.049 9  20390367.817 9  20390369.557 9
  23500322.215 8 123495033.670 8  96229880.119 7  23500318.079 7  23500320.988 7
  21809164.534 9 114607932.031 9  89304874.012 9  21809161.201 9  21809162.961 9
  20909803.613 9 109881803.610 9  85622182.708 9  20909797.862 9  20909802.080 9
  23481692.769 8 123397144.103 8  96153606.824 7  23481688.814 7  23481692.148 7
 09  6 30  2  7 30.0000000  0  9G22G 3G 6G11G32G14G20G19G28
  25160206.254 6 132217810.976 6
  22592158.312 9 118722647.062 9  92511152.820 8  22592154.855 8  22592157.153 8
  23511869.291 8 123555777.080 8  96277238.991 6  23511866.357 6  23511869.200 6
  20619894.461 9 108358282.570 9  84435019.705 9  20619889.826 9  20619894.009 9
  20384875.603 9 107123251.245 9  83472656.891 9  20384872.611 9  20384874.655 9
  23502511.714 8 123506540.975 8  96238846.844 7  23502507.830 7  23502510.917 7
  21793531.729 9 114525780.436 9  89240859.793 9  21793528.358 9  21793530.176 9
  20918148.222 9 109925655.111 9  85656352.707 9  20918142.538 9  20918146.871 9
  23472798.540 8 123350402.835 8  96117185.059 7  23472794.986 7  23472797.328 7
 09  6 30  2  8  0.0000000  0  9G22G 3G 6G11G32G14G20G19G28
  25179458.740 6 132318990.180 6
  22609926.326 9 118816019.237 9  92583910.350 8  22609922.863 8  22609925.499 8
  23529625.814 8 123649086.815 8  96349947.869 6  23529622.529 6  23529625.352 6
  20613979.313 9 108327198.695 9  84410798.500 9  20613974.799 9  20613978.923 9
  20379479.459 9 107094895.086 9  83450561.199 9  20379476.516 9  20379478.226 9
  23504806.626 8 123518599.628 8  96248243.197 7  23504802.260 7  23504805.629 7
  21777964.579 9 114443976.174 9  89177116.229 9  21777961.275 9  21777963.254 9
  20926568.900 9 109969906.152 9  85690834.041 9  20926563.488 9  20926567.439 9
  23463997.102 8 123304151.107 8  96081144.743 7  23463993.516 7  23463995.945 7
 09  6 30  2  8 30.0000000  0  9G22G 3G 6G11G32G14G20G19G28
  25198718.554 6 132420197.489 6
  22627740.290 9 118909631.222 9  92656854.760 8  22627736.980 8  22627739.314 8
  23547421.635 8 123742605.176 8  96422819.304 6  23547418.321 6  23547421.033 6
  20608111.535 9 108296363.617 9  84386771.166 9  20608106.958 9  20608110.788 9
  20374182.766 9 107067060.682 9  83428872.069 9  20374180.056 9  20374181.897 9
  23507205.506 8 123531209.563 8  96258069.128 7  23507202.233 7  23507205.313 7
  21762464.253 9 114362520.613 9  89113644.366 9  21762460.685 9  21762463.106 9
  20935065.360 9 110014556.267 9  85725626.341 9  20935060.047 9  20935063.930 9
  23455289.139 8 123258390.178 8  96045486.859 7  23455285.002 7  23455288.040 7
 09  6 30  2  9  0.0000000  0  9G22G 3G 6G11G32G14G20G19G28
  25217982.023 5 132521430.873 5
  22645599.417 9 119003480.973 9  92729984.414 8  22645596.271 8  22645598.235 8
  23565257.162 8 123836330.719 8  96495852.144 6  23565253.237 6  23565256.222 6
  20602291.289 9 108265777.828 9  84362938.089 9  20602286.833 9  20602290.309 9
  20368985.468 9 107039747.967 9  83407589.449 9  20368982.529 9  20368984.266 9
  23509710.666 8 123544370.806 8  96268324.661 7  23509707.202 7  23509709.850 7
  21747030.528 9 114281415.249 9  89050445.387 9  21747026.855 9  21747029.480 9
  20943637.850 9 110059605.138 9  85760729.358 9  20943632.607 9  20943636.514 9
  23446674.320 8 123213121.516 8  96010212.575 7  23446670.955 7  23446673.383 7
 09  6 30  2  9 30.0000000  0  9G22G 3G 6G11G32G14G20G19G28
  25237249.490 5 132622688.083 5
  22663503.286 9 119097567.152 9  92803298.319 8  22663500.142 8  22663502.129 8
  23583132.043 8 123930262.209 8  96569045.489 6  23583128.381 6  23583130.923 6
  20596518.454 9 108235441.637 9  84339299.502 9  20596513.950 9  20596517.564 9
  20363887.080 9 107012956.875 9  83386713.284 9  20363884.202 9  20363885.977 9
  23512320.027 8 123558083.550 8  96279009.922 7  23512316.509 7  23512319.215 7
  21731663.332 9 114200661.778 9  88987520.627 9  21731660.165 9  21731662.710 9
  20952286.522 9 110105052.894 9  85796143.204 9  20952280.803 9  20952284.825 9
  23438153.892 8 123168346.530 8  95975322.979 7  23438150.299 7  23438153.047 7
 09  6 30  2 10  0.0000000  0  9G22G 3G 6G11G32G14G20G19G28
  25256524.904 5 132723967.721 5
  22681451.857 9 119191888.240 9  92876795.259 8  22681448.941 8  22681451.122 8
  23601045.720 8 124024397.962 8  96642398.012 7  23601042.453 7  23601044.714 7
  20590793.385 9 108205355.540 9  84315855.790 9  20590788.896 9  20590792.495 9
  20358888.377 9 106986687.531 9  83366243.671 9  20358885.102 9  20358887.184 9
  23515034.122 8 123572347.535 8  96290124.719 7  23515030.718 7  23515033.545 7
  21716363.740 9 114120261.076 9  88924870.752 9  21716359.968 9  21716362.807 9
  20961010.713 9 110150899.607 9  85831867.918 9  20961005.185 9  20961009.454 9
  23429727.856 8 123124066.249 8  95940818.866 7  23429723.885 7  23429727.283 7
 09  6 30  2 10 30.0000000  0  9G22G 3G 6G11G32G14G20G19G28
  25275799.367 5 132825266.82515
  22699445.012 9 119286442.454 9  92950473.854 8  22699442.196 8  22699444.376 8
  23618996.401 8 124118736.725 8  96715908.711 6  23618994.704 6  23618996.698 6
  20585115.911 9 108175519.914 9  84292607.244 9  20585111.338 9  20585114.836 9
  20353988.754 9 106960939.791 9  83346180.493 9  20353985.635 9  20353987.524 9
  23517853.882 8 123587162.793 8  96301669.064 7  23517850.055 7  23517852.436 7
  21701131.166 9 114040214.747 9  88862497.016 9  21701127.550 9  21701130.088 9
  20969810.665 9 110197144.274 9  85867902.732 9  20969805.070 9  20969809.386 9
  23421396.117 8 123080282.144 8  95906701.377 7  23421391.672 7  23421395.375 7
 09  6 30  2 11  0.0000000  0  9G22G 3G 6G11G32G14G20G19G28
  25295082.514 5 132926585.587 5
  22717482.053 9 119381228.179 9  93024332.859 8  22717479.377 8  22717481.408 8
  23636987.301 8 124213276.960 8  96789576.369 6  23636984.961 6  23636986.713 6
  20579485.838 9 108145935.216 9  84269554.219 9  20579481.526 9  20579485.117 9
  20349188.287 9 106935713.632 9  83326523.736 9  20349185.468 9  20349187.174 9
  23520777.803 8 123602529.095 8  96313642.826 7  23520774.531 7  23520776.807 7
  21685966.646 9 113960524.463 9  88800400.701 9  21685962.689 9  21685965.465 9
  20978686.570 9 110243787.040 9  85904247.753 9  20978681.049 9  20978685.271 9
  23413158.899 8 123036995.589 8  95872971.580 7  23413154.723 7  23413158.162 7
 09  6 30  2 11 30.0000000  0  9G22G 3G 6G11G32G14G20G19G28
  25314369.144 5
  22735563.039 9 119476244.134 9  93098371.256 8  22735560.348 8  22735562.366 8
  23655016.028 8 124308017.286 8  96863399.964 6  23655013.499 6  23655015.400 6
  20573903.963 9 108116601.798 9  84246696.995 9  20573899.482 9  20573903.232 9
  20344487.292 9 106911009.079 9  83307273.433 9  20344484.562 9  20344486.304 9
  23523807.087 8 123618446.686 8  96326046.151 6  23523803.008 6  23523805.753 6
  21670869.921 9 113881191.133 9  88738582.528 9  21670866.197 9  21670868.768 9
  20987638.356 9 110290827.851 9  85940902.935 9  20987632.534 9  20987636.837 9
  23405017.054 8 122994207.773 8  95839630.427 7  23405012.783 7  23405016.163 7
 09  6 30  2 12  0.0000000  0  8G 3G 6G11G32G14G20G19G28
  22753687.570 9 119571488.321 9  93172587.495 8  22753684.675 8  22753686.345 8
  23673082.556 8 124402956.394 8  96937378.459 6  23673079.965 6  23673081.937 6
  20568369.819 9 108087520.517 9  84224036.244 9  20568365.616 9  20568369.180 9
  20339885.438 9 106886825.943 9  83288429.426 9  20339882.407 9  20339884.201 9
  23526940.265 8 123634915.384 8  96338878.915 7  23526936.676 7  23526939.289 7
  21655841.578 9 113802216.424 9  88677043.819 9  21655838.086 9  21655840.095 9
  20996665.585 9 110338266.472 9  85977868.102 9  20996659.826 9  20996664.175 9
  23396969.783 8 122951920.033 8  95806678.923 7  23396965.479 7  23396968.898 7
 09  6 30  2 12 30.0000000  0  9G17G 3G 6G11G32G14G20G19G28
  25841728.988 6 135799205.16316
  22771855.092 9 119666959.471 9  93246980.595 8  22771851.899 8  22771854.046 8
  23691186.709 7 124498092.733 7  97011510.619 6  23691183.745 6  23691186.135 6
  20562884.003 9 108058691.624 9  84201572.154 9  20562879.468 9  20562883.199 9
  20335382.782 9 106863164.064 9  83269991.592 9  20335379.686 9  20335381.305 9
  23530179.108 8 123651934.876 8  96352140.871 6  23530175.489 6  23530178.103 6
  21640881.457 9 113723601.644 9  88615785.584 9  21640878.419 9  21640880.477 9
  21005768.190 9 110386102.291 9  86015142.768 9  21005762.712 9  21005766.769 9
  23389018.194 8 122910133.157 8  95774117.720 7  23389014.090 7  23389016.796 7
 09  6 30  2 13  0.0000000  0  9G17G 3G 6G11G32G14G20G19G28
  25821994.668 6 135695504.547 6
  22790065.598 9 119762655.939 9  93321549.263 8  22790062.260 8  22790064.409 8
  23709327.506 8 124593424.830 8  97085795.308 7  23709324.553 7  23709326.736 7
  20557446.197 9 108030115.756 9  84179305.223 9  20557441.867 9  20557445.457 9
  20330979.006 9 106840023.248 9  83251959.782 9  20330975.990 9  20330978.058 9
  23533522.886 8 123669505.105 8  96365831.964 6  23533518.854 6  23533521.802 6
  21625990.262 9 113645348.190 9  88554808.886 9  21625987.298 9  21625989.396 9
  21014946.607 9 110434335.277 9  86052726.905 9  21014941.037 9  21014945.169 9
  23381161.485 8 122868848.821 8  95741948.107 7  23381157.626 7  23381160.871 7
 09  6 30  2 13 30.0000000  0  9G17G 3G 6G11G32G14G20G19G28
  25802251.788 7 135591746.915 7
  22808318.278 8 119858575.647 8  93396291.876 8  22808315.615 8  22808317.466 8
  23727505.842 8 124688951.266 8  97160231.457 7  23727502.887 7  23727504.537 7
  20552056.749 9 108001793.059 9  84157235.585 9  20552052.323 9  20552056.078 9
  20326674.598 9 106817403.468 9  83234333.975 9  20326671.656 9  20326673.494 9
  23536970.995 8 123687625.576 8  96379951.785 6  23536966.832 6  23536969.602 6
  21611168.545 9 113567457.358 9  88494114.737 9  21611165.043 9  21611167.217 9
  21024200.676 9 110482965.223 9  86090620.367 9  21024195.307 9  21024199.220 9
  23373401.571 8 122828068.035 8  95710170.854 7  23373397.197 7  23373400.496 7
 09  6 30  2 14  0.0000000  0  9G17G 3G 6G11G32G14G20G19G28
  25782497.031 6 135487933.401 6
  22826612.908 8 119954717.267 8  93471207.422 8  22826610.915 8  22826612.266 8
  23745720.339 8 124784670.564 8  97234817.871 7  23745717.884 7  23745719.621 7
  20546715.385 9 107973724.273 9  84135363.807 9  20546710.957 9  20546714.708 9
  20322469.371 9 106795304.423 9  83217113.935 9  20322466.358 9  20322468.092 9
  23540523.974 8 123706296.609 8  96394500.650 6  23540519.688 6  23540522.995 6
  21596415.595 9 113489930.150 9  88433703.920 9  21596412.553 9  21596414.682 9
  21033530.148 9 110531991.483 9  86128822.647 9  21033524.724 9  21033528.845 9
  23365737.123 8 122787791.632 8  95678786.642 7  23365732.851 7  23365735.858 7
 09  6 30  2 14 30.0000000  0  9G17G 3G 6G11G32G14G20G19G28
  25762730.685 6 135384065.672 6
  22844950.514 8 120051079.354 8  93546294.745 8  22844947.914 8  22844949.310 8
  23763971.965 8 124880581.280 8  97309553.451 7  23763969.736 7  23763971.008 7
  20541422.525 9 107945909.726 9  84113690.132 9  20541418.091 9  20541421.658 9
  20318363.252 9 106773726.018 9  83200299.586 9  20318360.187 9  20318361.932 9
  23544181.309 8 123725517.877 8  96409478.270 7  23544177.439 7  23544180.901 7
  21581732.202 9 113412768.463 9  88373577.921 9  21581729.005 9  21581731.167 9
  21042934.859 9 110581414.009 9  86167333.708 9  21042929.472 9  21042933.437 9
  23358168.650 8 122748021.118 8  95647796.629 7  23358164.476 7  23358168.218 7
 09  6 30  2 15  0.0000000  0  9G17G 3G 6G11G32G14G20G19G28
  25742954.346 6 135280144.807 6
  22863329.095 8 120147660.022 8  93621552.388 8  22863326.887 8  22863327.780 8
  23782258.947 8 124976682.006 8  97384437.081 6  23782257.164 6  23782258.321 6
  20536178.036 9 107918350.082 9  84092215.083 9  20536173.506 9  20536177.347 9
  20314355.944 9 106752667.961 9  83183890.711 9  20314353.244 9  20314354.509 9
  23547944.170 8 123745288.888 8  96424884.262 7  23547939.886 7  23547943.202 7
  21567118.553 9 113335973.046 9  88313737.338 9  21567114.838 9  21567117.326 9
  21052414.911 9 110631232.561 9  86206153.348 9  21052409.666 9  21052413.394 9
  23350697.645 8 122708757.567 8  95617201.643 7  23350692.731 7  23350696.240 7
 09  6 30  2 15 30.0000000  0  9G17G 3G 6G11G32G14G20G19G28
  25723170.540 6 135176172.887 6
  22881749.663 8 120244457.733 8  93696979.154 8  22881746.909 8  22881747.826 8
  23800582.761 8 125072971.163 8  97459467.528 6  23800580.401 6  23800581.114 6
  20530982.133 9 107891045.614 9  84070938.887 9  20530977.765 9  20530981.317 9
  20310447.613 9 106732130.018 9  83167887.125 9  20310444.836 9  20310446.470 9
  23551810.511 8 123765609.189 8  96440718.280 6  23551806.748 6  23551809.966 6
  21552574.803 9 113259545.509 9  88254183.421 9  21552570.852 9  21552573.475 9
  21061970.592 9 110681446.979 9  86245281.456 9  21061965.049 9  21061969.090 9
  23343322.886 8 122670002.115 8  95587002.587 7  23343318.271 7  23343321.796 7
 09  6 30  2 16  0.0000000  0  9G17G 3G 6G11G32G14G20G19G28
  25703374.700 6 135072150.647 6
  22900210.391 9 120341470.871 9  93772573.793 8  22900207.714 8  22900209.342 8
  23818941.126 8 125169447.298 8  97534643.716 6  23818939.386 6  23818939.976 6
  20525834.987 9 107863996.961 9  84049862.030 9  20525830.480 9  20525834.115 9
  20306638.326 9 106712111.930 9  83152288.616 9  20306635.290 9  20306637.152 9
  23555781.703 8 123786478.628 8  96456980.193 7  23555778.863 7  23555781.119 7
  21538101.677 9 113183486.858 9  88194916.955 9  21538097.392 9  21538100.318 9
  21071601.213 9 110732056.646 9  86284717.557 9  21071595.929 9  21071599.880 9
  23336044.266 8 122631755.562 8  95557200.070 7  23336040.035 7  23336043.675 7
 09  6 30  2 16 30.0000000  0  9G17G 3G 6G11G32G14G20G19G28
  25683570.291 7 134968079.552 7
  22918711.770 9 120438697.927 9  93848335.127 8  22918709.553 8  22918711.399 8
  23837335.484 8 125266108.886 8  97609964.396 6  23837333.363 6  23837333.613 6
  20520736.451 9 107837204.541 9  84028984.838 9  20520732.157 9  20520735.964 9
  20302927.960 9 106692613.421 9  83137094.976 9  20302925.056 9  20302926.758 9
  23559857.820 8 123807897.011 8  96473669.854 6  23559854.812 6  23559856.393 6
  21523698.490 9 113107798.462 9  88135939.000 9  21523694.501 9  21523697.399 9
  21081307.177 9 110783061.060 9  86324461.259 9  21081301.644 9  21081305.738 9
  23328863.415 8 122594019.214 8  95527795.123 7  23328859.159 7  23328862.270 7
 09  6 30  2 17  0.0000000  0  9G17G 3G 6G11G32G14G20G19G28
  25663756.794 6 134863960.953 6
  22937253.993 9 120536136.773 9  93924261.495 8  22937251.047 8  22937253.630 8
  23855764.424 8 125362954.519 8  97685428.484 6  23855762.771 6  23855762.933 6
  20515686.870 9 107810668.564 9  84008307.471 9  20515682.444 9  20515686.296 9
  20299316.443 9 106673634.265 9  83122306.034 9  20299313.483 9  20299315.246 9
  23564037.828 8 123829864.167 8  96490787.137 6  23564034.625 6  23564037.116 6
  21509366.098 9 113032481.625 9  88077250.577 9  21509362.191 9  21509365.130 9
  21091088.004 9 110834460.221 9  86364512.555 9  21091082.342 9  21091086.426 9
  23321779.547 8 122556794.153 8  95498788.584 7  23321775.654 7  23321778.626 7
 09  6 30  2 17 30.0000000  0  9G17G 3G 6G11G32G14G20G19G28
  25643936.211 6 134759796.708 6
  22955836.017 8 120633785.991 8  94000351.776 8  22955832.765 8  22955835.085 8
  23874228.178 8 125459982.539 8  97761034.695 6  23874226.175 6  23874227.306 6
  20510686.169 9 107784389.807 9  83987830.528 9  20510681.843 9  20510685.645 9
  20295803.650 9 106655173.929 9  83107921.360 9  20295800.497 9  20295802.492 9
  23568322.448 8 123852379.438 8  96508331.529 6  23568318.781 6  23568321.381 6
  21495104.785 9 112957537.575 9  88018852.642 9  21495100.996 9  21495103.641 9
  21100944.019 9 110886253.399 9  86404870.866 9  21100938.389 9  21100942.568 9
  23314793.707 8 122520081.380 8  95470181.225 7  23314789.503 7  23314792.706 7
 09  6 30  2 18  0.0000000  0  9G17G 3G 6G11G32G14G20G19G28
  25624105.324 6 134655588.557 6
  22974457.683 8 120731643.884 8  94076604.676 8  22974454.821 8  22974456.891 8
  23892727.027 8 125557191.625 8  97836782.042 6  23892724.811 6  23892725.601 6
  20505734.712 9 107758368.747 9  83967554.392 9  20505730.073 9  20505733.921 9
  20292389.272 9 106637232.114 9  83093940.728 9  20292386.251 9  20292388.154 9
  23572711.731 8 123875442.565 8  96526302.816 6  23572706.761 6  23572709.934 6
  21480914.433 9 112882967.762 9  87960746.324 9  21480910.674 9  21480913.475 9
  21110874.773 9 110938440.234 9  86445535.919 9  21110869.484 9  21110873.405 9
  23307905.046 8 122483881.750 8  95441973.711 7  23307901.158 7  23307903.984 7
 09  6 30  2 18 30.0000000  0  9G17G 3G 6G11G32G14G20G19G28
  25604265.724 6 134551337.813 6
  22993119.217 8 120829708.794 8  94153018.881 8  22993115.903 8  22993118.003 8
  23911259.066 7 125654580.142 7  97912669.171 6  23911257.251 6  23911258.757 6
  20500831.893 9 107732606.041 9  83947479.566 9  20500827.470 9  20500831.361 9
  20289073.759 9 106619808.488 9  83080363.883 9  20289070.561 9  20289072.621 9
  23577204.250 8 123899052.991 8  96544700.554 6  23577199.435 6  23577202.197 6
  21466795.571 9 112808773.086 9  87902932.304 9  21466792.292 9  21466794.307 9
  21120880.564 9 110991020.286 9  86486507.383 9  21120875.075 9  21120878.875 9
  23301114.477 8 122448196.284 8  95414166.853 7  23301110.299 7  23301113.348 7
 09  6 30  2 19  0.0000000  0  9G17G 3G 6G11G32G14G20G19G28
  25584418.592 6 134447045.880 6
  23011819.275 8 120927979.373 8  94229593.354 8  23011816.262 8  23011818.280 8
  23929825.252 7 125752146.549 7  97988694.894 6  23929822.553 6  23929824.852 6
  20495978.721 9 107707101.767 9  83927606.116 9  20495974.165 9  20495977.880 9
  20285856.739 9 106602902.743 9  83067190.578 9  20285853.638 9  20285855.702 9
  23581800.571 8 123923210.173 8  96563524.354 6  23581797.050 6  23581799.714 6
  21452748.169 9 112734954.749 9  87845411.545 9  21452745.306 9  21452746.940 9
  21130960.816 9 111043993.441 9  86527785.158 9  21130955.514 9  21130959.380 9
  23294422.183 8 122413025.953 8  95386761.389 7  23294417.573 7  23294420.673 7
 09  6 30  2 19 30.0000000  0  9G17G 3G 6G11G32G14G20G19G28
  25564566.979 6 134342714.281 6
  23030558.178 8 121026453.682 8  94306326.575 8  23030555.257 8  23030557.421 8
  23948424.853 7 125849889.436 7  98064858.138 6  23948421.961 6  23948424.222 6
  20491174.482 9 107681856.590 9  83907934.564 9  20491170.142 9  20491173.812 9
  20282737.948 9 106586514.383 9  83054420.428 9  20282735.155 9  20282736.778 9
  23586502.563 8 123947914.030 8  96582774.145 6  23586498.324 6  23586500.910 6
  21438772.999 9 112661513.938 9  87788184.946 9  21438769.869 9  21438771.599 9
  21141116.120 9 111097359.031 9  86569368.718 9  21141110.645 9  21141114.837 9
  23287827.570 8 122378371.257 8  95359757.720 7  23287823.338 7  23287826.223 7
 09  6 30  2 20  0.0000000  0  9G17G 3G 6G11G32G14G20G19G28
  25544705.886 6 134238344.947 6
  23049335.792 8 121125129.779 8  94383217.022 8  23049332.641 8  23049334.656 8
  23967057.834 7 125947807.093 7  98141157.562 6  23967055.311 6  23967056.581 6
  20486420.120 9 107656871.061 9  83888465.329 9  20486415.585 9  20486419.205 9
  20279717.799 9 106570643.006 9  83042053.127 9  20279714.776 9  20279716.719 9
  23591306.940 8 123973163.774 8  96602449.271 6  23591302.915 6  23591306.043 6
  21424869.647 9 112588451.941 9  87731253.519 9  21424866.405 9  21424868.568 9
  21151345.769 9 111151116.610 9  86611257.730 9  21151340.202 9  21151344.459 9
  23281330.821 8 122344233.818 8  95333157.111 7  23281327.437 7  23281330.244 7
 09  6 30  2 20 30.0000000  0  9G17G 3G 6G11G32G14G20G19G28
  25524838.450 7 134133939.468 7
  23068151.340 8 121224005.900 8  94460263.339 8  23068148.241 8  23068150.363 8
  23985723.353 7 126045898.089 7  98217592.074 6  23985721.379 6  23985722.376 6
  20481714.970 9 107632145.434 9  83869198.618 9  20481710.595 9  20481714.337 9
  20276795.900 9 106555288.136 9  83030088.293 9  20276792.844 9  20276794.775 9
  23596215.858 8 123998958.790 8  96622549.315 6  23596211.867 6  23596214.780 6
  21411038.994 9 112515769.703 9  87674618.014 9  21411035.262 9  21411037.881 9
  21161649.978 9 111205265.555 9  86653451.702 9  21161644.323 9  21161648.624 9
  23274933.371 8 122310614.339 8  95306960.114 7  23274929.960 7  23274932.715 7
 09  6 30  2 21  0.0000000  0  9G17G 3G 6G11G32G14G20G19G28
  25504964.265 7 134029499.213 7
  23087004.705 8 121323081.088 8  94537464.779 8  23087001.297 8  23087003.674 8
  24004422.507 7 126144160.859 7  98294160.435 6  24004420.250 6  24004420.857 6
  20477059.582 9 107607680.841 9  83850135.313 9  20477055.157 9  20477058.870 9
  20273972.157 9 106540449.370 9  83018525.629 9  20273969.226 9  20273971.095 9
  23601227.975 8 124025298.589 8  96643073.852 7  23601223.721 7  23601227.249 7
  21397280.539 9 112443468.767 9  87618279.627 9  21397276.744 9  21397279.547 9
  21172028.671 9 111259805.803 9  86695950.580 9  21172022.756 9  21172027.122 9
  23268634.735 8 122277513.653 8  95281167.381 7  23268631.040 7  23268633.839 7
 09  6 30  2 21 30.0000000  0  9G17G 3G 6G11G32G14G20G19G28
  25485083.689 7 133925025.853 7
  23105895.410 8 121422352.864 8  94614819.399 8  23105891.918 8  23105894.498 8
  24023153.786 7 126242593.928 7  98370861.483 5  24023151.862 5  24023152.651 5
  20472453.911 9 107583477.119 9  83831275.275 9  20472449.160 9  20472453.094 9
  20271246.314 9 106526126.164 9  83007364.701 9  20271243.471 9  20271245.483 9
  23606343.682 8 124052182.709 8  96664022.513 7  23606339.924 7  23606343.347 7
  21383595.006 9 112371550.067 9  87562239.109 9  21383590.914 9  21383593.794 9
  21182481.721 9 111314736.622 9  86738753.796 9  21182476.095 9  21182480.255 9
  23262434.682 8 122244932.548 8  95255779.510 8  23262430.641 8  23262434.009 8
 09  6 30  2 22  0.0000000  0  9G17G 3G 6G11G32G14G20G19G28
  25465196.822 7 133820521.366 7
  23124823.290 8 121521819.844 8  94692326.111 8  23124820.228 8  23124822.605 8
  24041917.780 7 126341195.631 7  98447693.938 6  24041914.850 6  24041915.544 6
  20467897.749 9 107559534.887 9  83812618.994 9  20467893.205 9  20467896.933 9
  20268618.864 9 106512318.001 9  82996605.101 9  20268615.702 9  20268617.824 9
  23611563.169 8 124079610.636 8  96685394.936 7  23611558.991 7  23611562.507 7
  21369981.912 9 112300014.657 9  87506497.253 9  21369978.253 9  21369980.964 9
  21193008.924 9 111370057.355 9  86781860.847 9  21193003.247 9  21193007.520 9
  23256333.673 8 122212871.856 8  95230797.159 8  23256329.748 8  23256333.149 8
 09  6 30  2 22 30.0000000  0  9G17G 3G 6G11G32G14G20G19G28
  25445304.651 7 133715987.020 7
  23143787.733 8 121621480.384 8  94769983.657 8  23143785.230 8  23143787.317 8
  24060712.929 7 126439964.389 7  98524656.570 6  24060709.511 6  24060711.539 6
  20463391.583 9 107535854.888 9  83794167.052 9  20463387.044 9  20463390.814 9
  20266089.192 9 106499024.358 9  82986246.432 9  20266086.144 9  20266087.793 9
  23616885.131 8 124107581.541 8  96707190.439 7  23616881.598 7  23616885.434 7
  21356442.373 9 112228863.689 9  87451054.944 9  21356438.548 9  21356441.104 9
  21203610.240 9 111425768.031 9  86825271.753 9  21203604.577 9  21203608.739 9
  23250331.863 8 122181332.494 8  95206221.032 8  23250327.986 8  23250331.236 8
 09  6 30  2 23  0.0000000  0  9G17G 3G 6G11G32G14G20G19G28
  25425407.179 7 133611424.444 7 104112770.41114  25425404.574 4  25425405.097 4
  23162789.393 8 121721332.643 8  94847790.604 7  23162786.825 7  23162788.376 7
  24079538.960 7 126538898.802 7  98601748.282 6  24079536.230 6  24079538.802 6
  20458935.362 9 107512437.660 9  83775919.874 9  20458930.876 9  20458934.821 9
  20263657.315 9 106486244.716 9  82976288.280 9  20263654.144 9  20263655.990 9
  23622311.267 8 124136095.030 8  96729408.757 6  23622307.830 6  23622310.552 6
  21342976.305 9 112158098.397 9  87395913.158 9  21342972.789 9  21342974.876 9
  21214285.638 9 111481867.428 9  86868985.564 9  21214280.230 9  21214284.204 9
  23244429.840 8 122150315.169 8  95182051.691 7  23244425.531 7  23244428.917 7
 09  6 30  2 23 30.0000000  0  9G17G 3G 6G11G32G14G20G19G28
  25405504.555 7 133506835.480 7 104031272.492 4  25405498.184 4  25405502.950 4
  23181826.722 8 121821374.975 8  94925745.656 7  23181823.991 7  23181826.105 7
  24098397.773 7 126637997.107 7  98678967.703 6  24098394.532 6  24098396.895 6
  20454529.266 9 107489283.284 9  83757877.509 9  20454524.631 9  20454528.428 9
  20261323.028 9 106473978.454 9  82966730.153 9  20261319.931 9  20261321.876 9
  23627841.132 8 124165150.392 8  96752049.309 6  23627836.698 6  23627838.777 6
  21329583.829 9 112087719.622 9  87341072.558 9  21329580.039 9  21329582.152 9
  21225034.837 9 111538355.424 9  86913002.186 9  21225029.412 9  21225033.559 9
  23238626.594 8 122119820.605 8  95158289.700 7  23238622.377 7  23238625.961 7
 09  6 30  2 24  0.0000000  0  9G17G 3G 6G11G32G14G20G19G28
  25385597.372 7 133402221.809 7 103949755.363 5  25385591.141 5  25385595.026 5
  23200900.141 8 121921605.599 8  95003847.427 7  23200897.116 7  23200899.205 7
  24117285.539 7 126737257.746 7  98756313.615 6  24117283.952 6  24117285.419 6
  20450173.287 9 107466392.467 9  83740040.512 9  20450168.546 9  20450172.483 9
  20259086.610 9 106462225.070 9  82957571.675 9  20259083.617 9  20259085.426 9
  23633472.449 7 124194746.810 7  96775111.463 6  23633468.665 6  23633470.908 6
  21316264.932 9 112017728.773 9  87286534.221 9  21316261.539 9  21316263.518 9
  21235858.062 9 111595231.322 9  86957321.068 9  21235852.438 9  21235856.329 9
  23232922.679 8 122089849.700 8  95134935.765 7  23232919.150 7  23232922.578 7
 09  6 30  2 24 30.0000000  0  9G17G 3G 6G11G32G14G20G19G28
  25365685.062 6 133297585.409 6 103868220.573 5  25365680.638 5  25365684.127 5
  23220009.002 8 122022022.865 8  95082094.635 7  23220005.825 7  23220007.803 7
  24136205.414 7 126836679.301 7  98833784.927 6  24136203.405 6  24136204.078 6
  20445867.545 9 107443765.986 9  83722409.491 9  20445862.881 9  20445866.794 9
  20256947.206 9 106450983.847 9  82948812.284 9  20256944.270 9  20256946.185 9
  23639207.478 8 124224883.613 8  96798594.687 6  23639203.452 6  23639206.434 6
  21303019.960 9 111948126.470 9  87232298.659 9  21303016.718 9  21303018.608 9
  21246754.737 9 111652494.526 9  87001941.745 9  21246749.362 9  21246753.099 9
  23227319.992 8 122060403.066 8  95111990.348 7  23227315.557 7  23227318.481 7
 09  6 30  2 25  0.0000000  0  9G17G 3G 6G11G32G14G20G19G28
  25345769.318 7 133192927.750 7 103786669.159 5  25345765.806 5  25345770.362 5
  23239152.988 8 122122625.185 8  95160486.034 7  23239149.715 7  23239151.701 7
  24155154.664 7 126936259.973 7  98911380.199 6  24155152.386 6  24155153.503 6
  20441612.275 9 107421404.177 9  83704984.709 9  20441607.640 9  20441611.543 9
  20254905.550 9 106440254.295 9  82940451.595 9  20254902.483 9  20254904.247 9
  23645044.400 7 124255560.136 7  96822498.484 6  23645041.494 6  23645044.047 6
  21289848.956 9 111878914.127 9  87178366.977 9  21289845.888 9  21289848.197 9
  21257725.114 9 111710144.543 9  87046863.840 9  21257719.792 9  21257723.600 9
  23221815.857 8 122031481.231 8  95089453.872 8  23221812.445 8  23221814.963 8
 09  6 30  2 25 30.0000000  0  9G17G 3G 6G11G32G14G20G19G28
  25325850.953 7 133088250.546 7 103705102.487 5  25325846.406 5  25325850.041 5
  23258331.795 8 122223410.336 8  95239019.904 7  23258328.413 7  23258330.198 7
  24174134.781 7 127035998.147 7  98989098.220 6  24174131.789 6  24174133.201 6
  20437407.372 9 107399307.490 9  83687766.516 9  20437402.732 9  20437406.781 9
  20252961.046 9 106430035.725 9  82932489.073 9  20252957.937 9  20252959.656 9
  23650984.881 8 124286775.717 8  96846822.307 6  23650981.969 6  23650984.179 6
  21276752.768 9 111810092.540 9  87124739.771 9  21276749.120 9  21276751.767 9
  21268768.987 9 111768180.564 9  87092086.718 9  21268763.515 9  21268767.523 9
  23216412.426 8 122003085.134 8  95067327.063 7  23216409.047 7  23216411.167 7
 09  6 30  2 26  0.0000000  0 10G23G17G 3G 6G11G32G14G20G19G28
  25309462.349 6 133002118.03816
  25305927.631 6 132983555.297 6 103623521.820 5  25305923.479 5  25305926.773 5
  23277545.038 8 122324376.487 8  95317694.821 7  23277541.673 7  23277543.615 7
  24193143.758 7 127135892.489 7  99066937.951 6  24193141.311 6  24193142.705 6
  20433253.024 9 107377476.425 9  83670755.293 9  20433248.605 9  20433252.395 9
  20251113.638 9 106420327.457 9  82924924.194 9  20251110.421 9  20251112.533 9
  23657027.473 7 124318529.370 7  96871565.417 6  23657024.710 6  23657026.998 6
  21263731.201 9 111741662.890 9  87071417.966 9  21263727.397 9  21263729.887 9
  21279886.312 9 111826602.474 9  87137610.286 9  21279880.961 9  21279884.990 9
  23211109.147 8 121975215.411 8  95045610.396 7  23211105.228 7  23211107.981 7
 09  6 30  2 26 30.0000000  0 10G23G17G 3G 6G11G32G14G20G19G28
  25290026.625 6 132899987.938 6
  25286002.007 7 132878844.169 7 103541928.823 5  25285998.449 5  25286000.571 5
  23296792.349 8 122425522.269 8  95396509.714 8  23296789.631 8  23296791.332 8
  24212182.101 7 127235941.090 7  99144897.880 6  24212179.283 6  24212181.363 6
  20429149.392 9 107355911.338 9  83653951.330 9  20429145.060 9  20429148.749 9
  20249363.214 9 106411128.790 9  82917756.402 9  20249360.185 9  20249362.088 9
  23663172.760 8 124350820.571 8  96896727.424 6  23663169.107 6  23663171.656 6
  21250784.418 9 111673626.233 9  87018402.400 9  21250780.712 9  21250783.047 9
  21291076.941 9 111885409.123 9  87183433.648 9  21291071.849 9  21291075.565 9
  23205906.028 8 121947872.620 8  95024304.337 7  23205902.293 7  23205904.567 7
 09  6 30  2 27  0.0000000  0 10G23G17G 3G 6G11G32G14G20G19G28
  25270564.580 6 132797713.473 6
  25266073.105 7 132774118.797 7 103460324.599 5  25266069.579 5  25266072.625 5
  23316073.289 8 122526846.256 8  95475463.447 7  23316070.905 7  23316073.047 7
  24231249.616 7 127336142.471 7  99222976.860 6  24231247.244 6  24231248.552 6
  20425096.344 9 107334613.023 9  83637355.243 9  20425092.130 9  20425095.765 9
  20247709.695 9 106402439.032 9  82910985.167 9  20247706.508 9  20247708.427 9
  23669419.462 8 124383648.264 8  96922307.465 6  23669415.602 6  23669418.870 6
  21237912.280 9 111605983.441 9  86965693.746 9  21237908.342 9  21237911.173 9
  21302340.630 9 111944600.197 9  87229556.572 9  21302335.480 9  21302339.154 9
  23200802.601 8 121921057.145 8  95003409.193 7  23200799.514 7  23200801.541 7
 09  6 30  2 27 30.0000000  0 10G23G17G 3G 6G11G32G14G20G19G28
  25251074.938 6 132695296.971 6
  25246141.481 7 132669381.214 7 103378710.907 5  25246138.321 5  25246141.921 5
  23335388.301 8 122628346.253 8  95554554.329 7  23335385.653 7  23335387.362 7
  24250346.836 7 127436495.025 7  99301173.639 5  24250343.918 5  24250345.016 5
  20421094.438 9 107313582.148 9  83620967.549 9  20421089.816 9  20421093.604 9
  20246152.735 9 106394257.478 9  82904609.933 9  20246149.498 9  20246151.643 9
  23675767.897 7 124417011.585 7  96948304.881 6  23675764.487 6  23675767.338 6
  21225115.472 9 111538735.574 9  86913292.821 9  21225111.409 9  21225114.327 9
  21313677.387 9 112004174.808 9  87275978.351 9  21313671.972 9  21313675.894 9
  23195800.367 8 121894769.903 8  94982925.649 7  23195796.989 7  23195798.904 7
 09  6 30  2 28  0.0000000  0 10G23G17G 3G 6G11G32G14G20G19G28
  25231559.470 6 132592740.724 6
  25226208.413 7 132564632.823 7 103297088.846 5  25226205.885 5  25226208.691 5
  23354736.708 8 122730020.798 8  95633781.228 7  23354734.220 7  23354735.265 7
  24269471.324 7 127536997.187 7  99379487.001 5  24269469.355 5  24269471.088 5
  20417143.293 9 107292818.891 9  83604788.395 9  20417138.714 9  20417142.450 9
  20244692.306 9 106386583.403 9  82898630.139 9  20244689.350 9  20244691.169 9
  23682219.019 7 124450909.697 7  96974719.001 6  23682215.234 6  23682218.015 6
  21212393.809 9 111471883.544 9  86861200.336 9  21212390.287 9  21212392.815 9
  21325087.235 9 112064132.376 9  87322698.537 9  21325081.368 9  21325085.797 9
  23190898.804 8 121869011.319 8  94962854.054 7  23190894.786 7  23190897.587 7
 09  6 30  2 28 30.0000000  0 10G23G17G 3G 6G11G32G14G20G19G28
  25212019.046 6 132490046.919 6
  25206274.954 7 132459875.392 7 103215459.651 5  25206270.270 5  25206273.995 5
  23374117.156 8 122831867.872 8  95713142.566 7  23374115.342 7  23374116.140 7
  24288624.357 7 127637647.102 7  99457915.492 5  24288622.013 5  24288623.296 5
  20413243.219 9 107272323.953 9  83588818.315 9  20413238.679 9  20413242.386 9
  20243328.471 9 106379416.103 9  82893045.238 9  20243325.355 9  20243327.155 9
  23688770.909 7 124485341.941 7  97001549.338 6  23688767.215 6  23688769.826 6
  21199748.004 9 111405428.440 9  86809417.151 9  21199744.545 9  21199746.772 9
  21336569.412 9 112124472.486 9  87369716.809 9  21336563.926 9  21336568.082 9
  23186097.651 8 121843781.989 8  94943194.848 7  23186093.499 7  23186096.509 7
 09  6 30  2 29  0.0000000  0 10G23G17G 3G 6G11G32G14G20G19G28
  25192450.161 6 132387218.239 6
  25186337.522 6 132355110.995 6 103133825.037 5  25186334.402 5  25186337.295 5
  23393530.680 8 122933885.533 8  95792636.819 7  23393528.564 7  23393529.621 7
  24307805.214 7 127738443.487 7  99536458.137 5  24307803.344 5  24307805.091 5
  20409394.308 9 107252097.864 9  83573057.726 9  20409389.734 9  20409393.472 9
  20242060.829 9 106372754.677 9  82887854.525 9  20242057.731 9  20242059.470 9
  23695424.727 8 124520307.294 8  97028795.059 6  23695420.381 6  23695423.770 6
  21187177.570 9 111339371.108 9  86757943.918 9  21187174.214 9  21187176.620 9
  21348124.082 9 112185194.104 9  87417032.351 9  21348118.638 9  21348122.950 9
  23181397.916 8 121819082.571 8  94923948.560 7  23181393.404 7  23181396.596 7
 09  6 30  2 29 30.0000000  0 10G23G17G 3G 6G11G32G14G20G19G28
  25172857.131 6 132284256.652 6
  25166402.185 6 132250341.703 6 103052186.663 5  25166398.687 5  25166401.636 5
  23412976.328 8 123036072.308 8  95872262.872 7  23412973.381 7  23412975.151 7
  24327013.747 7 127839384.482 7  99615113.501 5  24327011.565 5  24327013.474 5
  20405596.757 9 107232140.975 9  83557506.903 9  20405592.320 9  20405596.000 9
  20240889.117 9 106366598.474 9  82883057.489 9  20240886.315 9  20240887.805 9
  23702179.958 8 124555804.595 8  97056455.327 6  23702175.790 6  23702178.758 6
  21174683.134 9 111273712.291 9  86706781.217 9  21174679.450 9  21174681.914 9
  21359751.449 9 112246296.706 9  87464644.770 9  21359746.133 9  21359750.178 9
  23176798.334 8 121794913.362 8  94905115.423 7  23176794.168 7  23176797.441 7
 09  6 30  2 30  0.0000000  0 10G23G17G 3G 6G11G32G14G20G19G28
  25153240.005 6 132181164.563 6
  25146463.841 7 132145568.756 7 102970545.376 5  25146461.294 5  25146463.885 5
  23432453.726 8 123138426.177 8  95952019.141 7  23432450.393 7  23432452.760 7
  24346248.890 7 127940468.603 7  99693880.332 4  24346246.272 4  24346249.632 4
  20401850.466 9 107212454.020 9  83542166.410 9  20401845.808 9  20401849.484 9
  20239813.618 9 106360946.562 9  82878653.412 9  20239810.698 9  20239812.559 9
  23709035.151 8 124591833.141 8  97084529.535 6  23709031.836 6  23709035.044 6
  21162264.698 9 111208453.051 9  86655929.867 9  21162261.087 9  21162263.450 9
  21371451.625 9 112307779.617 9  87512553.524 9  21371445.583 9  21371450.017 9
  23172300.265 8 121771275.117 8  94886696.009 7  23172296.582 7  23172299.048 7
 09  6 30  2 30 30.0000000  0 10G23G17G 3G 6G11G32G14G20G19G28
  25133596.988 6 132077944.497 6
  25126525.407 7 132040794.100 7 102888902.782 5  25126523.579 5  25126525.586 5
  23451962.495 8 123240945.600 8  96031904.406 7  23451959.267 7  23451961.246 7
  24365512.039 7 128041694.022 7  99772757.290 5  24365509.443 5  24365512.574 5
  20398155.386 9 107193037.339 9  83527036.525 9  20398150.962 9  20398154.721 9
  20238834.010 9 106355798.172 9  82874641.687 9  20238831.180 9  20238832.861 9
  23715992.228 8 124628391.922 8  97113016.904 6  23715989.064 6  23715991.866 6
  21149922.653 9 111143594.410 9  86605390.681 9  21149918.866 9  21149921.560 9
  21383223.555 9 112369641.822 9  87560757.837 9  21383218.136 9  21383222.108 9
  23167903.103 8 121748168.007 8  94868690.477 7  23167899.351 7  23167901.608 7
 09  6 30  2 31  0.0000000  0 10G23G17G 3G 6G11G32G14G20G19G28
  25113931.285 6 131974598.692 6
  25106587.644 7 131936019.742 7 102807260.418 5  25106585.826 5  25106587.671 5
  23471502.446 8 123343628.429 8  96111916.983 7  23471499.432 7  23471501.274 7
  24384800.936 6 128143059.000 6  99851743.022 6  24384797.988 6  24384801.662 6
  20394512.116 9 107173891.645 9  83512117.806 9  20394507.723 9  20394511.553 9
  20237950.020 9 106351152.429 9  82871021.636 9  20237947.013 9  20237948.748 9
  23723050.084 8 124665479.900 8  97141916.638 6  23723046.552 6  23723049.683 6
  21137656.502 9 111079136.870 9  86555164.040 9  21137652.653 9  21137655.629 9
  21395067.700 9 112431882.924 9  87609257.395 9  21395062.208 9  21395066.210 9
  23163607.082 8 121725592.444 8  94851099.137 7  23163603.248 7  23163605.778 7
 09  6 30  2 31 30.0000000  0 10G23G17G 3G 6G11G32G14G20G19G28
  25094242.076 7 131871129.767 7
  25086650.635 7 131831247.726 7 102725619.888 6  25086647.918 6  25086649.958 6
  23491073.319 8 123446473.257 8  96192055.803 7  23491070.368 7  23491072.001 7
  24404116.858 7 128244562.038 7  99930836.294 5  24404113.882 5  24404116.209 5
  20390920.419 9 107155017.265 9  83497410.498 9  20390916.087 9  20390919.806 9
  20237161.299 9 106347008.447 9  82867792.561 9  20237158.298 9  20237160.198 9
  23730208.349 7 124703096.324 7  97171228.157 6  23730204.464 6  23730207.490 6
  21125467.330 9 111015081.973 9  86505251.135 9  21125463.786 9  21125466.182 9
  21406983.737 9 112494501.999 9  87658051.474 9  21406978.223 9  21406982.047 9
  23159412.084 8 121703548.830 8  94833922.307 7  23159408.782 7  23159411.132 7
 09  6 30  2 32  0.0000000  0 10G23G17G 3G 6G11G32G14G20G19G28
  25074530.054 7 131767539.972 7
  25066714.214 7 131726479.972 7 102643982.671 6  25066711.520 6  25066713.642 6
  23510674.263 8 123549478.137 8  96272319.346 7  23510671.367 7  23510673.158 7
  24423457.968 7 128346201.628 7
  20387380.673 9 107136414.789 9  83482915.058 9  20387376.101 9  20387379.970 9
  20236468.108 9 106343365.465 9  82864953.880 9  20236465.196 9  20236466.852 9
  23737466.781 8 124741239.744 8  97200950.293 6  23737463.363 6  23737466.022 6
  21113354.914 9 110951430.354 9  86455652.477 9  21113351.546 9  21113353.648 9
  21418971.376 9 112557498.365 9  87707139.552 9  21418966.100 9  21418969.799 9
  23155318.893 8 121682037.888 8  94817160.539 7  23155315.284 7  23155318.177 7
 09  6 30  2 32 30.0000000  0 10G23G17G 3G 6G11G32G14G20G19G28
  25054794.875 7 131663831.828 7
  25046779.059 8 131621718.113 8 102562350.018 6  25046775.705 6  25046779.122 6
  23530305.100 8 123652641.657 8  96352706.505 7  23530302.828 7  23530304.458 7
  24442824.427 7 128447975.788 7
  20383892.722 9 107118084.903 9  83468632.018 9  20383888.055 9  20383892.040 9
  20235869.989 9 106340222.452 9  82862504.791 9  20235866.941 9  20235868.739 9
  23744825.295 8 124779909.361 8  97231082.469 7  23744822.321 7  23744824.849 7
  21101319.249 9 110888182.725 9  86406368.607 9  21101315.506 9  21101318.100 9
  21431030.854 9 112620871.267 9  87756521.042 9  21431025.562 9  21431029.523 9
  23151326.949 8 121661059.670 8  94800813.876 7  23151323.002 7  23151326.107 7
 09  6 30  2 33  0.0000000  0 10G23G17G 3G 6G11G32G14G20G19G28
  25035036.874 7 131560007.566 7
  25026843.735 7 131516963.750 7 102480723.252 6  25026840.453 6  25026845.074 6
  23549966.921 8 123755961.497 8  96433215.471 7  23549963.945 7  23549965.454 7
  24462217.127 7 128549882.930 7
  20380456.415 9 107100027.948 9  83454561.656 9  20380452.034 9  20380455.773 9
  20235366.917 9 106337578.540 9  82860444.609 9  20235363.728 9  20235365.720 9
  23752283.347 7 124819103.955 7  97261623.721 6  23752280.205 6  23752282.802 6
  21089360.553 9 110825339.808 9  86357400.093 9  21089356.966 9  21089359.433 9
  21443161.756 9 112684619.825 9  87806195.246 9  21443156.190 9  21443160.320 9
  23147436.244 8 121640614.575 8  94784882.628 7  23147431.856 7  23147435.299 7
 09  6 30  2 33 30.0000000  0 10G23G17G 3G 6G11G32G14G20G19G28
  25015257.791 7 131456069.605 7
  25006912.381 7 131412218.727 7 102399103.680 6  25006907.380 6  25006912.119 6
  23569656.856 8 123859435.901 8  96513844.858 7  23569654.282 7  23569656.366 7
  24481634.039 7 128651921.496 7
  20377072.208 9 107082244.479 9  83440704.402 9  20377067.818 9  20377071.592 9
  20234958.463 9 106335432.811 9  82858772.615 9  20234955.514 9  20234957.395 9
  23759841.388 7 124858822.682 7  97292573.362 6  23759837.962 6  23759841.118 6
  21077479.246 9 110762902.411 9  86308747.573 9  21077475.809 9  21077478.203 9
  21455363.945 9 112748742.915 9  87856161.287 9  21455358.530 9  21455362.172 9
  23143647.333 8 121620702.660 8  94769366.832 7  23143642.620 7  23143646.553 7
 09  6 30  2 34  0.0000000  0 10G23G17G 3G 6G11G32G14G20G19G28
  24995457.926 7 131352020.381 7
  24986982.768 7 131307486.103 7 102317493.897 6  24986977.779 6  24986982.129 6
  23589376.925 8 123963062.928 8  96594593.179 7  23589373.660 7  23589375.683 7
  24501076.185 7 128754089.809 7
  20373740.469 9 107064735.253 9  83427060.845 9  20373735.834 9  20373739.554 9
  20234644.957 9 106333784.289 9  82857488.054 9  20234641.888 9  20234643.684 9
  23767499.320 7 124899063.782 7  97323930.096 6  23767495.445 6  23767498.701 6
  21065675.345 9 110700871.593 9  86260411.871 9  21065671.455 9  21065674.294 9
  21467637.363 9 112813240.566 9  87906419.191 9  21467631.894 9  21467635.981 9
  23139959.991 8 121601324.836 8  94754267.231 7  23139955.042 7  23139959.440 7
 09  6 30  2 34 30.0000000  0 10G23G17G 3G 6G11G32G14G20G19G28
  24975637.922 7 131247862.181 7
  24967055.051 7 131202766.966 7 102235894.576 6  24967050.759 6  24967054.570 6
  23609124.975 8 124066841.019 8  96675459.211 7  23609122.179 7  23609123.642 7
  24520541.923 7 128856385.974 7
  20370460.911 9 107047500.855 9  83413631.433 9  20370456.417 9  20370459.948 9
  20234425.468 9 106332631.974 9  82856590.150 9  20234422.646 9  20234424.303 9
  23775256.077 8 124939826.684 8  97355693.417 6  23775252.881 6  23775256.096 6
  21053948.461 9 110639248.205 9  86212393.645 9  21053944.552 9  21053947.875 9
  21479982.150 9 112878111.394 9  87956967.883 9  21479976.733 9  21479980.670 9
  23136374.132 8 121582481.011 8  94739583.716 7  23136369.181 7  23136373.804 7
 09  6 30  2 35  0.0000000  0 10G23G17G 3G 6G11G32G14G20G19G28
  24955796.493 7 131143597.705 7
  24947130.424 7 131098062.985 7 102154307.096 5  24947126.687 5  24947129.965 5
  23628902.377 8 124170768.227 8  96756441.446 7  23628899.292 7  23628900.309 7
  24540032.817 6 128958808.571 6
  20367233.613 9 107030541.326 9  83400416.211 9  20367229.269 9  20367232.866 9
  20234300.490 9 106331974.918 9  82856078.171 9  20234297.660 9  20234299.529 9
  23783112.649 7 124981110.289 7  97387862.472 6  23783108.427 6  23783111.744 6
  21042299.680 9 110578032.718 9  86164693.253 9  21042295.935 9  21042298.605 9
  21492397.573 9 112943354.736 9  88007806.853 9  21492392.145 9  21492395.927 9
  23132890.242 8 121564171.366 8  94725316.453 7  23132885.250 7  23132889.245 7
 09  6 30  2 35 30.0000000  0 10G23G17G 3G 6G11G32G14G20G19G28
  24935936.049 7 131039229.323 7 102108473.17815  24935932.640 5  24935934.846 5
  24927209.133 7 130993376.331 7 102072733.117 6  24927205.849 6  24927207.971 6
  23648706.099 8 124274842.846 8  96837538.547 7  23648703.938 7  23648705.175 7
  24559546.962 7 129061355.798 7
  20364058.772 9 107013857.531 9  83387415.847 9  20364054.300 9  20364058.144 9
  20234269.580 9 106331812.077 9  82855951.290 9  20234266.481 9  20234268.380 9
  23791067.068 7 125022913.093 7  97420436.088 6  23791063.118 6  23791066.219 6
  21030728.614 9 110517226.180 9  86117311.519 9  21030725.060 9  21030727.536 9
  21504883.280 9 113008969.503 9  88058935.247 9  21504878.188 9  21504882.021 9
  23129507.371 8 121546396.463 8  94711465.879 7  23129502.908 7  23129506.689 7
 09  6 30  2 36  0.0000000  0 10G23G17G 3G 6G11G32G14G20G19G28
  24916056.818 7 130934759.427 7 102027068.008 5  24916051.081 5  24916056.698 5
  24907291.727 7 130888709.162 7 101991174.296 6  24907288.463 6  24907290.079 6
  23668539.030 8 124379063.532 8  96918749.446 7  23668536.368 7  23668537.764 7
  24579084.751 7 129164026.030 7
  20360936.538 9 106997449.834 9  83374630.623 9  20360931.889 9  20360935.673 9
  20234332.382 9 106332142.525 9  82856208.790 9  20234329.374 9  20234331.302 9
  23799119.854 7 125065234.035 7  97453413.451 6  23799116.426 6  23799119.010 6
  21019235.648 9 110456829.239 9  86070248.945 9  21019231.847 9  21019234.477 9
  21517440.179 9 113074954.941 9  88110352.465 9  21517434.833 9  21517438.950 9
  23126226.722 8 121529156.334 8  94698032.001 7  23126222.517 7  23126225.697 7
 09  6 30  2 36 30.0000000  0 10G23G17G 3G 6G11G32G14G20G19G28
  24896158.461 7 130830190.340 7 101945585.575 6  24896152.015 6  24896157.102 6
  24887377.553 7 130784063.319 7 101909632.111 6  24887374.536 6  24887377.023 6
  23688398.609 8 124483428.188 8  97000072.531 7  23688396.205 7  23688397.930 7
  24598644.824 6 129266817.392 6
  20357866.966 9 106981319.048 9  83362061.180 9  20357862.235 9  20357866.352 9
  20234488.959 9 106332965.220 9  82856849.855 9  20234485.860 9  20234487.807 9
  23807272.019 7 125108071.927 7  97486793.651 6  23807269.118 6  23807270.271 6
  21007820.400 9 110396842.775 9  86023506.247 9  21007817.032 9  21007819.285 9
  21530067.441 9 113141310.265 9  88162057.916 9  21530061.614 9  21530066.090 9
  23123048.223 8 121512451.118 8  94685014.937 7  23123043.913 7  23123047.068 7
 09  6 30  2 37  0.0000000  0 10G23G17G 3G 6G11G32G14G20G19G28
  24876241.375 8 130725524.546 8 101864027.787 6  24876234.910 6  24876239.721 6
  24867468.845 7 130679440.626 7 101828107.989 6  24867463.972 6  24867467.544 6
  23708285.223 8 124587934.760 8  97081506.202 7  23708283.182 7  23708284.593 7
  24618227.400 6 129369728.447 6
  20354850.024 9 106965465.459 9  83349707.725 9  20354845.572 9  20354849.474 9
  20234738.926 9 106334279.016 9  82857873.599 9  20234735.891 9  20234737.707 9
  23815522.425 7 125151425.419 7  97520575.592 6  23815518.516 6  23815520.917 6
  20996483.692 9 110337267.183 9  85977083.710 9  20996480.285 9  20996482.616 9
  21542764.441 9 113208034.611 9  88214050.913 9  21542758.814 9  21542763.112 9
  23119970.341 8 121496280.857 8  94672414.738 7  23119966.394 7  23119970.036 7
 09  6 30  2 37 30.0000000  0 10G23G17G 3G 6G11G32G14G20G19G28
  24856306.060 8 130620765.030 8 101782396.983 6  24856299.481 6  24856305.610 6
  24847563.423 7 130574843.023 7 101746603.432 6  24847560.759 6  24847563.382 6
  23728198.903 8 124692581.323 8  97163048.967 7  23728196.760 7  23728198.011 7
  24637833.117 6 129472757.231 6
  20351886.117 9 106949889.791 9  83337570.838 9  20351881.595 9  20351885.290 9
  20235082.286 9 106336082.818 9  82859279.161 9  20235079.083 9  20235080.953 9
  23823870.245 7 125195293.378 7  97554758.435 6  23823865.894 6  23823869.244 6
  20985225.136 9 110278103.440 9  85930982.100 9  20985221.418 9  20985224.149 9
  21555531.747 9 113275126.825 9  88266330.562 9  21555526.075 9  21555530.461 9
  23116995.680 9 121480645.639 9  94660231.455 7  23116990.962 7  23116994.953 7
 09  6 30  2 38  0.0000000  0 10G23G17G 3G 6G11G32G14G20G19G28
  24836353.360 8 130515913.835 8 101700694.749 6  24836346.769 6  24836352.591 6
  24827666.022 7 130470272.783 7 101665120.141 6  24827662.178 6  24827664.867 6
  23748139.624 8 124797366.166 8  97244699.475 6  23748136.845 6  23748137.489 6
  24657462.144 6 129575902.149 6
  20348975.135 9 106934592.625 9  83325650.972 9  20348970.674 9  20348974.108 9
  20235518.585 9 106338375.668 9  82861065.806 9  20235515.602 9  20235517.524 9
  23832315.471 8 125239674.403 8  97589341.070 6  23832312.090 6  23832315.003 6
  20974045.014 9 110219352.141 9  85885201.868 9  20974041.057 9  20974043.868 9
  21568368.687 9 113342586.102 9  88318896.234 9  21568362.981 9  21568367.348 9
  23114122.330 8 121465545.939 8  94648465.450 7  23114117.584 7  23114121.722 7
 09  6 30  2 38 30.0000000  0 10G23G17G 3G 6G11G32G14G20G19G28
  24816383.605 8 130410973.507 8 101618923.078 6  24816377.603 6  24816383.234 6
  24807772.985 7 130365731.707 7 101583659.565 6  24807768.868 6  24807771.768 6
  23768105.198 8 124902287.630 8  97326456.425 7  23768102.584 7  23768103.816 7
  24677111.762 6 129679161.614 6
  20346117.125 9 106919574.444 9  83313948.496 9  20346112.718 9  20346116.407 9
  20236047.792 9 106341156.430 9  82863232.644 9  20236044.540 9  20236046.543 9
  23840858.312 8 125284566.949 8  97624322.272 6  23840854.685 6  23840857.698 6
  20962943.794 9 110161014.157 9  85839743.685 9  20962939.894 9  20962942.355 9
  21581275.550 9 113410411.760 9  88371747.393 9  21581269.662 9  21581274.108 9
  23111350.617 8 121450981.533 8  94637116.545 7  23111345.906 7  23111350.122 7
 09  6 30  2 39  0.0000000  0 10G23G17G 3G 6G11G32G14G20G19G28
  24796397.877 8 130305946.450 8 101537083.845 6  24796391.840 6  24796397.601 6
  24787884.037 7 130261221.903 7 101502223.369 6  24787881.777 6  24787884.171 6
  23788096.545 8 125007343.268 8  97408317.945 7  23788094.453 7  23788095.763 7
  24696783.045 7 129782533.610 7
  20343312.682 9 106904835.781 9  83302463.832 9  20343307.928 9  20343312.143 9
  20236669.529 9 106344423.892 9  82865778.725 9  20236666.476 9  20236668.402 9
  23849498.956 8 125329969.978 8  97659701.260 6  23849494.175 6  23849497.832 6
  20951921.302 9 110103090.184 9  85794608.116 9  20951917.558 9  20951919.925 9
  21594251.713 9 113478602.714 9  88424883.196 9  21594246.309 9  21594250.251 9
  23108680.773 8 121436952.532 8  94626184.862 7  23108676.345 7  23108680.046 7
 09  6 30  2 39 30.0000000  0 10G23G17G 3G 6G11G32G14G20G19G28
  24776395.950 8 130200835.463 8 101455179.177 6  24776389.837 6  24776395.587 6
  24768003.295 7 130156745.218 7 101420813.000 6  24768000.411 6  24768003.154 6
  23808113.348 8 125112532.051 8  97490283.195 7  23808111.299 7  23808113.187 7
  24716474.406 7 129886016.468 7
  20340561.118 9 106890376.933 9  83291197.201 9  20340556.572 9  20340560.528 9
  20237383.781 9 106348176.987 9  82868703.219 9  20237380.769 9  20237382.335 9
  23858235.561 8 125375882.382 8  97695477.178 6  23858231.469 6  23858234.567 6
  20940977.497 9 110045580.583 9  85749795.450 9  20940973.726 9  20940976.322 9
  21607297.350 9 113547157.811 9  88478302.750 9  21607292.066 9  21607295.862 9
  23106112.837 8 121423459.189 8  94615670.557 7  23106108.586 7  23106112.029 7
 09  6 30  2 40  0.0000000  0 10G23G17G 3G 6G11G32G14G20G19G28
  24756377.561 8 130095642.867 8 101373210.934 6  24756372.770 6  24756377.773 6
  24748129.474 8 130052304.033 8 101339430.261 6  24748125.223 6  24748128.812 6
  23828155.735 8 125217851.864 8  97572350.554 7  23828152.550 7  23828154.723 7
  24736188.010 7 129989608.526 7
  20337863.285 9 106876198.838 9  83280149.343 9  20337858.616 9  20337862.508 9
  20238190.060 9 106352414.606 9  82872005.269 9  20238187.021 9  20238188.901 9
  23867068.794 8 125422302.531 8  97731648.737 6  23867065.009 6  23867067.566 6
  20930112.686 9 109988486.129 9  85705306.284 9  20930109.024 9  20930111.550 9
  21620412.039 9 113616076.053 9  88532005.279 9  21620406.467 9  21620410.414 9
  23103647.438 8 121410501.518 8  94605573.679 7  23103642.928 7  23103646.102 7
 09  6 30  2 40 30.0000000  0 10G23G17G 3G 6G11G32G14G20G19G28
  24736345.463 7 129990371.124 7 101291181.052 6  24736340.188 6  24736344.883 6
  24728261.408 8 129947900.073 8 101258076.538 6  24728258.129 6  24728261.390 6
  23848222.045 8 125323300.809 8  97654518.537 7  23848218.798 7  23848220.856 7
  24755921.098 7 130093308.095 7
  20335218.740 9 106862301.752 9  83269320.450 9  20335214.185 9  20335218.065 9
  20239088.649 9 106357135.536 9  82875683.928 9  20239085.445 9  20239087.467 9
  23875998.250 7 125469228.958 7  97768214.788 6  23875994.732 6  23875997.142 6
  20919327.167 9 109931807.111 9  85661140.830 9  20919322.849 9  20919326.024 9
  21633595.878 9 113685356.792 9  88585990.275 9  21633590.336 9  21633594.039 9
  23101283.519 8 121398079.223 8  94595893.988 7  23101279.127 7  23101282.557 7
 09  6 30  2 41  0.0000000  0 10G23G17G 3G 6G11G32G14G20G19G28
  24716298.376 7 129885022.498 7 101209091.215 6  24716293.338 6  24716297.575 6
  24708401.360 7 129843535.432 7 101176753.448 6  24708398.717 6  24708401.477 6
  23868311.809 8 125428877.045 8  97736785.687 7  23868309.130 7  23868311.320 7
  24775674.315 7 130197113.426 7 101452235.48615  24775671.719 5  24775672.767 5
  20332627.519 9 106848686.345 9  83258711.051 9  20332623.275 9  20332627.076 9
  20240078.644 9 106362338.578 9  82879738.257 9  20240075.588 9  20240077.477 9
  23885024.339 7 125516660.413 7  97805174.378 6  23885021.042 6  23885023.160 6
  20908620.741 9 109875544.780 9  85617300.071 9  20908616.748 9  20908619.589 9
  21646848.013 9 113754998.880 9  88640256.839 9  21646842.637 9  21646846.675 9
  23099021.920 8 121386192.284 8  94586631.429 7  23099016.778 7  23099020.494 7
 09  6 30  2 41 30.0000000  0 10G23G17G 3G 6G11G32G14G20G19G28
  24696236.755 7 129779599.808 7 101126943.642 6  24696232.030 6  24696236.661 6
  24688549.319 7 129739212.254 7 101095462.668 6  24688546.977 6  24688549.469 6
  23888426.297 8 125534578.853 8  97819150.704 7  23888423.530 7  23888425.629 7
  24795447.185 7 130301022.818 7 101533203.852 5  24795444.899 5  24795446.510 5
  20330090.287 9 106835353.255 9  83248321.638 9  20330086.227 9  20330089.588 9
  20241160.148 9 106368022.539 9  82884167.325 9  20241156.951 9  20241159.110 9
  23894145.559 7 125564595.366 7  97842526.306 6  23894142.420 6  23894145.289 6
  20897993.645 9 109819699.565 9  85573784.338 9  20897989.957 9  20897992.489 9
  21660169.306 9 113825001.295 9  88694804.170 9  21660163.838 9  21660167.629 9
  23096861.745 8 121374840.767 8  94577786.083 7  23096856.689 7  23096860.306 7
 09  6 30  2 42  0.0000000  0 10G23G17G 3G 6G11G32G14G20G19G28
  24676162.850 7 129674105.530 7 101044740.286 6  24676157.005 6  24676161.743 6
  24668706.014 7 129634932.598 7 101014205.804 6  24668703.094 6  24668705.259 6
  23908564.449 8 125640403.839 8  97901611.717 7  23908561.556 7  23908563.458 7
  24815239.386 7 130405034.395 7 101614251.821 5  24815237.056 5  24815238.674 5
  20327607.135 9 106822302.793 9  83238152.453 9  20327602.364 9  20327605.982 9
  20242333.084 9 106374186.274 9  82888970.239 9  20242329.747 9  20242332.017 9
  23903363.244 7 125613032.416 7  97880269.460 6  23903359.176 6  23903362.519 6
  20887446.158 9 109764271.801 9  85530593.904 9  20887442.388 9  20887444.888 9
  21673558.478 9 113895363.263 9  88749631.680 9  21673553.173 9  21673557.002 9
  23094803.294 8 121364024.874 8  94569358.135 7  23094799.076 7  23094802.353 7
 09  6 30  2 42 30.0000000  0 10G23G17G 3G 6G11G32G14G20G19G28
  24656074.065 7 129568542.529 7 100962483.402 6  24656068.369 6  24656072.937 6
  24648870.992 7 129530698.482 7 100932984.435 5  24648867.785 5  24648869.765 5
  23928725.205 8 125746350.249 8  97984167.316 7  23928722.540 7  23928724.242 7
  24835052.094 7 130509146.619 7 101695378.223 5  24835050.265 5  24835050.850 5
  20325177.691 9 106809535.630 9  83228204.023 9  20325172.941 9  20325176.879 9
  20243597.075 9 106380828.418 9  82894145.940 9  20243593.973 9  20243595.743 9
  23912675.428 7 125661970.114 7  97918402.768 6  23912671.558 6  23912675.122 6
  20876978.003 9 109709262.311 9  85487729.387 9  20876974.002 9  20876976.689 9
  21687016.273 9 113966083.642 9  88804738.464 9  21687010.866 9  21687015.027 9
  23092846.670 8 121353744.030 8  94561347.098 7  23092842.791 7  23092846.048 7
 09  6 30  2 43  0.0000000  0 10G23G17G 3G 6G11G32G14G20G19G28
  24635973.378 7 129462913.006 7 100880174.695 6  24635967.980 6  24635972.423 6
  24629044.282 7 129426511.853 7 100851800.070 5  24629041.556 5  24629043.119 5
  23948909.221 8 125852416.906 8  98066816.623 6  23948906.534 6  23948908.100 6
  24854882.235 7 130613357.513 7 101776581.519 5  24854879.230 5  24854882.384 5
  20322802.108 9 106797052.422 9  83218476.850 9  20322797.560 9  20322801.400 9
  20244951.755 9 106387947.860 9  82899693.562 9  20244948.767 9  20244950.573 9
  23922083.138 7 125711406.874 7  97956924.922 6  23922079.216 6  23922082.329 6
  20866589.679 9 109654671.600 9  85445191.180 9  20866585.994 9  20866588.447 9
  21700542.019 9 114037161.120 9  88860123.508 9  21700536.647 9  21700540.256 9
  23090992.424 8 121343998.340 8  94553753.054 7  23090988.099 7  23090991.561 7
 09  6 30  2 43 30.0000000  0 10G23G17G 3G 6G11G32G14G20G19G28
  24615860.881 7 129357219.375 7 100797816.018 6  24615855.770 6  24615859.797 6
  24609227.812 7 129322374.847 7 100770654.395 5  24609224.921 5  24609226.531 5
  23969115.068 8 125958601.583 8  98149557.912 6  23969112.866 6  23969114.485 6
  24874732.212 7 130717665.585 7 101857860.533 5  24874728.675 5  24874730.795 5
  20320480.676 9 106784853.673 9  83208971.341 9  20320476.257 9  20320480.015 9
  20246397.120 9 106395543.277 9  82905612.075 9  20246393.943 9  20246395.905 9
  23931585.301 7 125761341.397 7  97995834.922 6  23931581.604 6  23931584.273 6
  20856281.306 9 109600500.192 9  85402979.695 9  20856277.645 9  20856280.063 9
  21714135.096 9 114108594.910 9  88915786.196 9  21714129.757 9  21714133.716 9
  23089239.479 8 121334787.756 8  94546575.977 7  23089235.242 7  23089239.158 7
 09  6 30  2 44  0.0000000  0 10G23G17G 3G 6G11G32G14G20G19G28
  24595736.164 8 129251464.402 8 100715409.506 6  24595730.737 6  24595735.317 6
  24589420.857 7 129218289.788 7 100689549.179 6  24589417.773 6  24589419.887 6
  23989343.869 8 126064902.373 8  98232389.686 6  23989340.957 6  23989342.576 6
  24894600.230 7 130822068.921 7 101939213.780 4  24894594.552 4  24894597.699 4
  20318213.426 9 106772939.833 9  83199687.841 9  20318209.282 9  20318212.719 9
  20247932.753 9 106403613.404 9  82911900.498 9  20247929.829 9  20247931.740 9
  23941181.311 7 125811772.010 7  98035131.521 6  23941178.417 6  23941180.690 6
  20846052.663 9 109546748.704 9  85361095.419 9  20846049.334 9  20846051.346 9
  21727796.228 9 114180383.921 9  88971725.677 9  21727790.968 9  21727795.068 9
  23087588.693 8 121326111.880 8  94539815.552 7  23087584.331 7  23087588.100 7
 09  6 30  2 44 30.0000000  0 10G23G17G 3G 6G11G32G14G20G19G28
  24575600.862 8 129145650.629 8 100632957.212 6  24575595.013 6  24575599.213 6
  24569624.384 7 129114258.732 7 100608486.044 6  24569620.760 6  24569623.936 6
  24009593.944 8 126171317.483 8  98315310.540 6  24009591.329 6  24009592.681 6
  24914484.608 7 130926565.722 7 102020639.925 5  24914480.880 5  24914482.585 5
  20316000.774 9 106761311.676 9  83190626.946 9  20315996.392 9  20315999.931 9
  20249558.565 9 106412156.926 9  82918557.792 9  20249555.561 9  20249557.434 9
  23950873.100 8 125862697.318 8  98074813.626 6  23950868.982 6  23950871.862 6
  20835904.354 9 109493417.565 9  85319538.684 9  20835900.448 9  20835902.939 9
  21741524.592 9 114252526.990 9  89027941.046 9  21741518.990 9  21741523.264 9
  23086039.520 8 121317970.651 8  94533471.735 7  23086035.127 7  23086038.528 7
 09  6 30  2 45  0.0000000  0 10G23G17G 3G 6G11G32G14G20G19G28
  24555454.418 7 129039780.101 7 100550460.707 6  24555448.038 6  24555452.741 6
  24549838.859 7 129010283.593 7 100527466.460 6  24549835.411 6  24549838.052 6
  24029865.522 8 126277845.019 8  98398318.984 6  24029862.037 6  24029864.760 6
  24934387.394 7 131031154.390 7 102102137.586 5  24934383.936 5  24934386.552 5
  20313842.447 9 106749969.436 9  83181788.835 9  20313838.082 9  20313841.737 9
  20251274.136 9 106421172.607 9  82925583.004 9  20251271.313 9  20251273.233 9
  23960657.787 7 125914115.712 7  98114879.940 6  23960653.604 6  23960656.203 6
  20825835.774 9 109440507.268 9  85278309.871 9  20825831.865 9  20825834.575 9
  21755320.296 9 114325023.136 9  89084431.546 9  21755314.660 9  21755318.704 9
  23084591.855 8 121310363.631 8  94527544.190 7  23084587.221 7  23084591.008 7
 09  6 30  2 45 30.0000000  0 10G23G17G 3G 6G11G32G14G20G19G28
  24535297.526 7 128933856.181 7 100467922.511 5  24535290.686 5  24535295.885 5
  24530063.683 7 128906366.639 7 100446492.248 6  24530060.986 6  24530063.332 6
  24050158.319 8 126384483.453 8  98481413.851 6  24050155.186 6  24050157.682 6
  24954306.988 7 131135833.041 7 102183705.342 5  24954303.614 5  24954306.139 5
  20311738.862 9 106738913.703 9  83173173.986 9  20311733.911 9  20311738.047 9
  20253079.457 9 106430659.115 9  82932975.093 9  20253076.346 9  20253078.299 9
  23970535.326 8 125966025.209 8  98155328.893 6  23970531.892 6  23970535.028 6
  20815847.267 9 109388018.241 9  85237409.320 9  20815843.606 9  20815845.981 9
  21769182.845 9 114397871.312 9  89141196.353 9  21769177.135 9  21769181.573 9
  23083245.935 8 121303291.055 8  94522033.104 7  23083241.077 7  23083244.761 7
 09  6 30  2 46  0.0000000  0 10G23G17G 3G 6G11G32G14G20G19G28
  24515130.956 7 128827881.515 7 100385344.866 5  24515125.146 5  24515129.956 5
  24510300.462 7 128802509.859 7 100365564.936 6  24510298.047 6  24510300.055 6
  24070471.053 8 126491230.406 8  98564593.291 6  24070468.981 6  24070470.421 6
  24974242.304 7 131240599.932 7 102265341.909 4  24974240.166 4  24974242.173 4
  20309689.722 9 106728145.218 9  83164782.970 9  20309684.864 9  20309688.838 9
  20254974.018 9 106440615.121 9  82940733.029 9  20254970.963 9  20254972.861 9
  23980507.346 7 126018424.841 7  98196159.783 6  23980502.952 6  23980506.616 6
  20805939.297 9 109335951.119 9  85196837.539 9  20805935.824 9  20805938.231 9
  21783112.313 9 114471070.273 9  89198234.502 9  21783106.380 9  21783110.905 9
  23082001.816 8 121296752.246 8  94516937.926 7  23081997.259 7  23082000.265 7
 09  6 30  2 46 30.0000000  0 10G23G17G 3G 6G11G32G14G20G19G28
  24494955.697 7 128721858.290 7 100302729.389 5  24494949.654 5  24494954.302 5
  24490549.493 7 128698715.790 7 100284686.454 6  24490546.209 6  24490548.661 6
  24090804.579 8 126598083.942 8  98647855.769 6  24090803.154 6  24090804.214 6
  24994196.572 6 131345453.342 6 102347045.800 4  24994192.919 4  24994194.972 4
  20307695.166 9 106717664.387 9  83156616.096 9  20307690.347 9  20307694.280 9
  20256957.582 9 106451039.205 9  82948855.704 9  20256954.706 9  20256956.312 9
  23990571.327 7 126071312.885 7  98237371.228 6  23990566.996 6  23990570.614 6
  20796111.488 9 109284306.202 9  85156594.745 9  20796107.917 9  20796110.464 9
  21797108.074 9 114544619.283 9  89255545.412 9  21797102.420 9  21797107.047 9
  23080858.939 8 121290747.098 8  94512258.592 7  23080854.615 7  23080857.319 7
 09  6 30  2 47  0.0000000  0 10G23G17G 3G 6G11G32G14G20G19G28
  24474771.380 7 128615789.230 7 100220078.198 5  24474765.628 5  24474771.380 5
  24470809.829 8 128594986.185 8 100203858.224 7  24470806.851 7  24470809.404 7
  24111158.583 7 126705042.481 7  98731200.076 6  24111156.026 6  24111157.447 6
  25014164.843 6 131450391.491 6 102428815.803 5  25014162.705 5  25014164.708 5
  20305755.367 9 106707471.822 9  83148673.854 9  20305750.768 9  20305754.647 9
  20259030.033 9 106461930.060 9  82957342.093 9  20259027.141 9  20259028.892 9
  24000727.821 7 126124687.612 7  98278961.951 6  24000723.806 6  24000727.197 6
  20786364.397 9 109233083.983 9  85116681.324 9  20786360.885 9  20786362.987 9
  21811170.131 9 114618516.654 9  89313127.770 9  21811164.832 9  21811168.755 9
  23079817.465 8 121285275.142 8  94507994.750 7  23079813.735 7  23079816.290 7
 09  6 30  2 47 30.0000000  0 10G23G17G 3G 6G11G32G14G20G19G28
  24454579.192 7 128509676.542 7 100137392.995 5  24454573.166 5  24454578.265 5
  24451083.658 8 128491323.306 8 100123081.974 6  24451079.920 6  24451082.641 6
  24131531.344 7 126812104.116 7  98814624.741 5  24131529.317 5  24131530.574 5
  25034149.012 6 131555412.612 6 102510650.407 5  25034147.840 5  25034149.698 5
  20303870.757 9 106697568.128 9  83140956.700 9  20303866.334 9  20303870.181 9
  20261190.967 9 106473286.257 9  82966191.083 9  20261187.977 9  20261189.927 9
  24010976.709 7 126178547.266 7  98320930.531 6  24010972.909 6  24010975.371 6
  20776697.659 9 109182285.117 9  85077097.794 9  20776694.108 9  20776696.490 9
  21825298.378 9 114692761.398 9  89370980.813 9  21825293.393 9  21825296.994 9
  23078877.547 8 121280335.993 8  94504146.079 7  23078873.820 7  23078876.836 7
 09  6 30  2 48  0.0000000  0 10G23G17G 3G 6G11G32G14G20G19G28
  24434378.505 7 128403523.392 7 100054676.238 6  24434372.705 6  24434377.706 6
  24431370.043 8 128387729.316 8 100042359.412 7  24431366.859 7  24431369.376 7
  24151922.953 7 126919266.995 7  98898128.251 6  24151921.332 6  24151922.648 6
  25054150.545 6 131660515.092 6 102592548.419 4  25054149.057 4  25054150.149 4
  20302041.056 9 106687953.851 9  83133465.062 9  20302036.565 9  20302040.548 9
  20263440.402 9 106485106.488 9  82975401.657 9  20263437.391 9  20263439.232 9
  24021318.214 7 126232890.349 7  98363275.807 6  24021314.257 6  24021316.217 6
  20767111.725 9 109131909.707 9  85037844.236 9  20767107.968 9  20767110.386 9
  21839492.627 9 114767352.506 9  89429103.748 9  21839487.299 9  21839491.246 9
  23078039.520 8 121275929.613 8  94500712.542 7  23078035.371 7  23078038.792 7
 09  6 30  2 48 30.0000000  0 10G23G17G 3G 6G11G32G14G20G19G28
  24414170.343 7 128297331.975 7  99971929.630 6  24414165.129 6  24414170.127 6
  24411670.792 8 128284206.256 8  99961692.089 6  24411667.044 6  24411669.742 6
  24172335.190 7 127026529.144 7  98981709.121 6  24172332.753 6  24172333.858 6
  25074165.975 6 131765696.789 6
  20300266.777 9 106678629.562 9  83126199.394 9  20300262.339 9  20300266.199 9
  20265777.790 9 106497389.308 9  82984972.685 9  20265774.631 9  20265776.651 9
  24031751.395 8 126287714.975 8  98405996.313 6  24031747.268 6  24031749.809 6
  20757606.107 9 109081958.158 9  84998920.960 9  20757602.490 9  20757605.174 9
  21853752.760 9 114842288.683 9  89487495.577 9  21853746.818 9  21853751.171 9
  23077302.143 8 121272055.432 8  94497693.704 7  23077298.058 7  23077301.591 7
 09  6 30  2 49  0.0000000  0 10G23G17G 3G 6G11G32G14G20G19G28
  24393956.436 7 128191105.037 7  99889155.372 5  24393951.356 5  24393956.257 5
  24391984.275 8 128180756.456 8  99881081.864 6  24391981.603 6  24391984.103 6
  24192764.805 7 127133888.686 7  99065365.856 6  24192762.527 6  24192764.178 6
  25094196.016 6 131870956.400 6
  20298547.846 9 106669595.631 9  83119159.978 9  20298543.266 9  20298547.103 9
  20268202.932 9 106510133.338 9  82994903.106 9  20268199.592 9  20268201.688 9
  24042275.422 7 126343019.756 7  98449090.936 6  24042270.606 6  24042274.660 6
  20748181.524 9 109032431.187 9  84960328.531 9  20748177.935 9  20748180.395 9
  21868077.905 9 114917568.801 9  89546155.414 9  21868072.019 9  21868076.837 9
  23076665.716 8 121268712.958 8  94495089.167 7  23076661.909 7  23076665.017 7
 09  6 30  2 49 30.0000000  0 10G23G17G 3G 6G11G32G14G20G19G28
  24373736.876 7 128084845.226 7  99806355.458 5  24373729.838 5  24373735.514 5
  24372313.225 7 128077382.118 7  99800530.448 6  24372310.584 6  24372312.589 6
  24213212.643 8 127241343.607 8  99149096.929 6  24213210.609 6  24213212.104 6
  25114240.815 6 131976291.746 6
  20296883.969 9 106660852.754 9  83112347.354 9  20296879.462 9  20296883.383 9
  20270715.354 9 106523337.128 9  83005191.783 9  20270712.393 9  20270714.228 9
  24052890.196 7 126398802.570 7  98492558.061 6  24052886.479 6  24052890.250 6
  20738837.687 9 108983329.368 9  84922067.393 9  20738834.023 9  20738836.589 9
  21882468.497 9 114993191.636 9  89605082.289 9  21882462.560 9  21882466.968 9
  23076131.093 8 121265901.831 8  94492898.663 7  23076126.630 7  23076130.174 7
 09  6 30  2 50  0.0000000  0 10G23G17G 3G 6G11G32G14G20G19G28
  24353509.187 7 127978555.224 7  99723532.012 6  24353503.581 6  24353509.561 6
  24352656.301 7 127974085.425 7  99720039.540 6  24352653.996 6  24352655.799 6
  24233678.918 8 127348892.463 8  99232901.226 6  24233676.998 6  24233677.991 6
  25134300.277 6 132081701.218 6
  20295275.931 9 106652401.375 9  83105761.872 9  20295271.089 9  20295274.952 9
  20273315.214 9 106536999.290 9  83015837.629 9  20273312.163 9  20273314.003 9
  24063596.188 7 126455061.997 7  98536396.574 6  24063592.450 6  24063595.627 6
  20729574.838 9 108934652.710 9  84884137.552 9  20729570.946 9  20729573.450 9
  21896923.969 9 115069156.139 9  89664275.404 9  21896918.186 9  21896922.230 9
  23075697.164 8 121263621.625 8  94491121.888 7  23075693.049 7  23075696.150 7
 09  6 30  2 50 30.0000000  0 10G23G17G 3G 6G11G32G14G20G19G28
  24333277.943 7 127872237.501 7  99640686.967 6  24333272.657 6  24333277.068 6
  24333015.205 7 127870868.677 7  99639610.928 6  24333012.333 6  24333014.628 6
  24254162.207 8 127456532.978 8  99316776.944 6  24254160.415 6  24254161.341 6
  25154371.159 6 132187182.820 6
  20293722.993 9 106644241.850 9  83099403.805 9  20293718.426 9  20293722.069 9
  20276002.036 9 106551118.334 9  83026839.492 9  20275998.936 9  20276000.767 9
  24074391.485 7 126511796.173 7  98580605.034 5  24074388.208 5  24074390.721 5
  20720392.872 9 108886401.284 9  84846539.052 9  20720389.115 9  20720391.631 9
  21911444.248 9 115145461.000 9  89723733.728 9  21911438.994 9  21911442.980 9
  23075364.362 8 121261871.966 8  94489758.538 7  23075360.225 7  23075363.115 7
 09  6 30  2 51  0.0000000  0 10G23G17G 3G 6G11G32G14G20G19G28
  24313041.990 7 127765894.875 7  99557822.537 6  24313036.687 6  24313040.830 6
  24313389.182 7 127767733.985 7  99559246.248 6  24313385.978 6  24313389.024 6
  24274663.125 8 127564263.505 8  99400722.816 7  24274660.770 7  24274661.872 7
  25174457.540 6 132292735.062 6
  20292225.959 9 106636375.044 9  83093273.833 9  20292221.296 9  20292225.268 9
  20278775.310 9 106565692.713 9  83038196.163 9  20278772.276 9  20278774.010 9
  24085278.295 7 126569003.370 7  98625182.073 6  24085273.673 6  24085277.168 6
  20711292.030 9 108838575.984 9  84809272.598 9  20711288.265 9  20711290.742 9
  21926029.502 9 115222104.936 9  89783456.271 9  21926024.185 9  21926027.997 9
  23075132.007 8 121260652.250 8  94488808.130 7  23075127.630 7  23075130.622 7
 09  6 30  2 51 30.0000000  0 10G23G17G 3G 6G11G32G14G20G19G28
  24292801.310 7 127659529.827 7  99474940.631 6  24292795.617 6  24292800.290 6
  24293779.367 7 127664683.742 7  99478947.365 6  24293775.851 6  24293778.806 6
  24295179.882 8 127672082.089 8  99484737.286 7  24295177.932 7  24295179.056 7
  25194557.426 6 132398356.137 6
  20290784.974 9 106628801.611 9  83087372.460 9  20290780.295 9  20290784.269 9
  20281635.172 9 106580721.093 9  83049906.593 9  20281632.143 9  20281634.086 9
  24096253.984 7 126626681.943 7  98670126.406 6  24096249.926 6  24096253.317 6
  20702272.234 9 108791176.810 9  84772338.196 9  20702268.458 9  20702270.818 9
  21940678.567 9 115299086.908 9  89843442.224 9  21940672.947 9  21940677.100 9
  23075000.916 8 121259962.011 8  94488270.292 7  23074995.881 7  23074998.979 7
 09  6 30  2 52  0.0000000  0 10G23G17G 3G 6G11G32G14G20G19G28
  24272557.124 8 127553145.009 8  99392043.352 6  24272551.248 6  24272555.821 6
  24274185.630 7 127561720.050 7  99398715.918 6  24274182.762 6  24274184.602 6
  24315713.599 8 127779986.914 8  99568818.971 7  24315711.429 7  24315712.808 7
  25214670.424 5
  20289399.841 9 106621521.771 9  83081699.862 9  20289395.031 9  20289398.870 9
  20284581.196 9 106596201.828 9  83061969.507 9  20284577.956 9  20284580.020 9
  24107319.507 7 126684829.965 7  98715436.550 5  24107314.741 5  24107319.099 5
  20693333.812 9 108744203.995 9  84735736.030 9  20693330.028 9  20693332.766 9
  21955391.550 9 115376405.492 9  89903690.483 9  21955386.209 9  21955390.112 9
  23074969.271 8 121259800.453 8  94488144.402 7  23074965.127 7  23074968.183 7
 09  6 30  2 52 30.0000000  0  9G23G17G 3G11G32G14G20G19G28
  24252309.755 8 127446743.219 8  99309132.831 6  24252304.471 6  24252308.274 6
  24254609.369 8 127458845.311 8  99318553.784 7  24254606.346 7  24254608.309 7
  24336263.655 8 127887975.805 8  99652966.153 7  24336260.467 7  24336262.804 7
  20288070.320 9 106614536.226 9  83076256.583 9  20288065.741 9  20288069.616 9
  20287612.758 9 106612133.499 9  83074383.804 9  20287609.858 9  20287611.500 9
  24118473.154 7 126743445.697 7  98761111.173 6  24118469.590 6  24118472.826 6
  20684476.165 9 108697657.977 9  84699466.424 9  20684472.329 9  20684474.930 9
  21970168.760 9 115454059.617 9  89964200.189 9  21970162.835 9  21970167.222 9
  23075039.690 8 121260167.160 8  94488430.150 7  23075034.896 7  23075038.242 7
 09  6 30  2 53  0.0000000  0  9G23G17G 3G11G32G14G20G19G28
  24232059.472 8 127340326.981 8  99226211.050 7  24232053.789 7  24232058.081 7
  24235050.324 8 127356061.443 8  99238462.487 7  24235047.560 7  24235049.322 7
  24356828.957 8 127996046.898 8  99737177.392 7  24356825.603 7  24356828.134 7
  20286797.059 9 106607845.509 9  83071043.044 9  20286792.498 9  20286796.567 9
  20290729.977 9 106628514.626 9  83087148.336 9  20290726.928 9  20290728.760 9
  24129715.790 7 126802527.219 7  98807148.730 6  24129713.024 6  24129715.271 6
  20675699.884 9 108651539.115 9  84663529.666 9  20675696.360 9  20675698.643 9
  21985009.315 9 115532047.923 9  90024970.303 9  21985003.625 9  21985007.821 9
  23075209.753 8 121261061.503 8  94489127.062 7  23075205.209 7  23075208.708 7
 09  6 30  2 53 30.0000000  0  9G23G17G 3G11G32G14G20G19G28
  24211807.275 8 127233899.334 8  99143280.432 6  24211801.446 6  24211806.164 6
  24215509.426 8 127253370.761 8  99158443.808 7  24215506.066 7  24215508.236 7
  24377409.270 8 128104198.410 8  99821451.298 6  24377406.226 6  24377408.603 6
  20285580.077 9 106601450.281 9  83066059.750 9  20285575.449 9  20285579.309 9
  20293932.635 9 106645343.671 9  83100261.887 9  20293929.326 9  20293931.365 9
  24141046.225 7 126862072.589 7  98853547.702 5  24141044.280 5  24141046.443 5
  20667005.138 9 108605847.602 9  84627925.904 9  20667001.372 9  20667003.986 9
  21999913.443 9 115610369.107 9  90085999.796 9  21999907.817 9  21999911.946 9
  23075480.365 8 121262483.375 8  94490235.030 7  23075475.771 7  23075479.427 7
 09  6 30  2 54  0.0000000  0  9G23G17G 3G11G32G14G20G19G28
  24191552.560 8 127127462.606 8  99060342.754 6  24191546.731 6  24191551.852 6
  24195985.570 8 127150775.505 8  99078499.469 7  24195982.954 7  24195985.146 7
  24398004.161 8 128212428.410 8  99905786.371 6  24398001.888 6  24398004.187 6
  20284419.548 9 106595351.054 9  83061307.118 9  20284414.805 9  20284418.631 9
  20297219.851 9 106662619.059 9  83113723.232 9  20297216.909 9  20297218.441 9
  24152467.233 7 126922080.066 7  98900306.756 6  24152463.116 6  24152465.590 6
  20658391.778 9 108560583.753 9  84592655.393 9  20658388.017 9  20658390.464 9
  22014880.360 9 115689021.750 9  90147287.575 9  22014875.111 9  22014878.933 9
  23075851.082 8 121264431.408 8  94491752.995 7  23075846.608 7  23075850.317 7
 09  6 30  2 54 30.0000000  0  9G23G17G 3G11G32G14G20G19G28
  24171296.984 8 127021019.563 8  98977400.181 6  24171291.418 6  24171296.301 6
  24176481.088 8 127048278.158 8  98998631.428 7  24176477.997 7  24176480.344 7
  24418614.192 7 128320734.907 7  99990181.028 6  24418611.841 6  24418613.924 6
  20283315.228 9 106589548.219 9  83056785.440 9  20283310.499 9  20283314.534 9
  20300592.089 9 106680339.205 9  83127531.148 9  20300588.789 9  20300590.679 9
  24163972.620 7 126982547.866 7  98947424.537 5  24163969.691 5  24163972.828 5
  20649859.802 9 108515747.730 9  84557718.248 9  20649855.623 9  20649858.569 9
  22029910.483 9 115768004.775 9  90208832.781 9  22029904.600 9  22029909.062 9
  23076322.162 8 121266905.148 8  94493680.595 7  23076317.740 7  23076321.301 7
 09  6 30  2 55  0.0000000  0  9G23G17G 3G11G32G14G20G19G28
  24151041.379 8 126914572.938 8  98894454.852 6  24151035.279 6  24151040.203 6
  24156995.082 8 126945881.065 8  98918841.503 7  24156992.394 7  24156994.880 7
  24439238.686 7 128429116.232 7 100074634.014 6  24439236.114 6  24439237.996 6
  20282267.549 9 106584042.484 9  83052495.261 9  20282262.895 9  20282266.876 9
  20304048.363 9 106698502.565 9  83141684.420 9  20304044.976 9  20304047.204 9
  24175566.794 7 127043474.038 7  98994899.483 6  24175563.130 6  24175566.729 6
  20641409.173 9 108471339.862 9  84523114.723 9  20641405.236 9  20641408.002 9
  22045003.184 9 115847316.810 9  90270634.381 9  22044997.353 9  22045001.573 9
  23076892.678 8 121269903.879 8  94496017.271 7  23076888.210 7  23076891.491 7
 09  6 30  2 55 30.0000000  0  9G23G17G 3G11G32G14G20G19G28
  24130784.527 8 126808125.340 8  98811508.769 6  24130778.802 6  24130783.966 6
  24137529.801 8 126843586.463 8  98839131.447 7  24137526.317 7  24137528.931 7
  24459876.571 7 128537570.517 7 100159143.843 6  24459874.324 6  24459875.979 6
  20281276.627 9 106578834.408 9  83048437.023 9  20281271.736 9  20281275.670 9
  20307588.502 9 106717107.624 9  83156181.871 9  20307585.476 9  20307587.464 9
  24187247.728 7 127104856.679 7  99042730.107 6  24187243.756 6  24187247.776 6
  20633040.041 9 108427360.089 9  84488844.772 9  20633036.326 9  20633038.779 9
  22060158.369 9 115926956.432 9  90332691.229 9  22060152.506 9  22060156.860 9
  23077563.358 8 121273426.910 8  94498762.506 7  23077558.611 7  23077562.152 7
 09  6 30  2 56  0.0000000  0  9G23G17G 3G11G32G14G20G19G28
  24110528.592 8 126701679.289 8  98728563.899 6  24110522.470 6  24110527.762 6
  24118083.369 7 126741396.574 7  98759502.989 6  24118079.930 6  24118082.803 6
  24480528.728 7 128646095.826 7 100243709.030 5  24480526.143 5  24480527.441 5
  20280342.267 9 106573924.518 9  83044611.139 9  20280337.530 9  20280341.329 9
  20311212.819 9 106736152.792 9  83171022.265 9  20311209.725 9  20311211.623 9
  24199014.924 7 127166693.989 7  99090915.014 6  24199010.909 6  24199014.971 6
  20624752.501 9 108383808.865 9  84454908.768 9  20624749.047 9  20624751.293 9
  22075374.947 9 116006922.575 9  90395002.513 9  22075369.573 9  22075373.515 9
  23078332.853 8 121277473.466 8  94501915.667 7  23078328.836 7  23078332.030 7
 09  6 30  2 56 30.0000000  0  9G23G17G 3G11G32G14G20G19G28
  24090273.681 8 126595237.494 8  98645622.329 6  24090267.518 6  24090272.604 6
  24098657.397 8 126639313.832 8  98679958.015 6  24098653.861 6  24098657.515 6
  24501193.300 7 128754690.234 7 100328328.026 5  24501191.510 5  24501191.944 5
  20279464.623 9 106569313.288 9  83041017.986 9  20279460.101 9  20279463.858 9
  20314920.310 9 106755636.321 9  83186204.239 9  20314917.343 9  20314919.205 9
  24210868.266 7 127228983.946 7  99139452.616 6  24210865.030 6  24210868.146 6
  20616546.765 9 108340686.421 9  84421306.875 9  20616542.748 9  20616545.306 9
  22090653.884 9 116087213.706 9  90457567.026 9  22090648.522 9  22090652.662 9
  23079202.624 8 121282042.976 8  94505476.311 7  23079197.913 7  23079201.615 7
 09  6 30  2 57  0.0000000  0  9G23G17G 3G11G32G14G20G19G28
  24070019.298 8 126488802.714 8  98562686.177 6  24070013.304 6  24070018.820 6
  24079252.986 8 126537340.269 8  98600498.116 7  24079248.870 7  24079252.644 7
  24521870.931 7 128863351.851 7 100412999.443 5  24521868.673 5  24521870.120 5
  20278644.078 9 106565001.242 9  83037657.954 9  20278639.485 9  20278643.431 9
  20318711.103 9 106775556.767 9  83201726.665 9  20318708.052 9  20318710.007 9
  24222807.655 7 127291724.648 7  99188341.482 6  24222803.701 6  24222806.700 6
  20608422.420 9 108297992.761 9  84388039.097 9  20608418.569 9  20608421.203 9
  22105994.402 9 116167828.258 9  90520383.554 9  22105988.741 9  22105993.170 9
  23080171.058 8 121287134.598 8  94509443.791 7  23080166.764 7  23080170.398 7
 09  6 30  2 57 30.0000000  0  9G23G17G 3G11G32G14G20G19G28
  24049766.871 8 126382377.800 8  98479757.715 6  24049761.643 6  24049767.177 6
  24059869.480 8 126435478.314 8  98521125.166 7  24059865.284 7  24059868.857 7
  24542561.557 7 128972078.713 7 100497721.678 5  24542558.712 5  24542559.592 5
  20277880.587 9 106560989.083 9  83034531.599 9  20277876.009 9  20277879.953 9
  20322584.787 9 106795912.411 9  83217588.206 9  20322581.702 9  20322583.518 9
  24234832.035 7 127354914.025 7  99237579.960 6  24234828.708 6  24234830.899 6
  20600379.618 9 108255728.015 9  84355105.537 9  20600375.851 9  20600378.261 9
  22121396.015 9 116248765.182 9  90583451.288 9  22121390.883 9  22121394.357 9
  23081239.170 8 121292747.639 8  94513817.586 7  23081235.208 7  23081238.204 7
